{"counties":[{"name":"Carlow","lat":52.687289286158,"lng":-6.6390606022049,"transactions":[{"address":"Ballinasillogue, Borris","date1":"2012-07-03","date2":"2010-11-17","price1":"180000","price2":"200000","lat":"52.605576","lng":"-6.930715"},{"address":"Drummond, St. Mullins","date1":"2012-05-28","date2":"2010-12-17","price1":"165000","price2":"125000","lat":"52.690741","lng":"-6.80595"},{"address":"5 Montgomery Street, Carlow","date1":"2012-02-27","date2":"2010-03-29","price1":"100000","price2":"80000","lat":"52.8412077","lng":"-6.93193625"},{"address":"Main Street, Ballon","date1":"2011-03-30","date2":"2010-08-18","price1":"35000","price2":"92500","lat":"52.74176","lng":"-6.771164"},{"address":"slyguff, Bagenalstown","date1":"2010-07-23","date2":"2010-11-01","price1":"100000","price2":"168000","lat":"52.66740345","lng":"-6.96400225"}]},{"name":"Cavan","lat":54.048954056844,"lng":-7.3843639601812,"transactions":[{"address":"crenard, ballinagh","date1":"2012-06-19","date2":"2012-06-12","price1":"40000","price2":"39000","lat":"53.933359","lng":"-7.41094"},{"address":"Knocktemple, Virginia","date1":"2011-10-05","date2":"2010-02-26","price1":"83000","price2":"250000","lat":"53.83827","lng":"-7.0831"},{"address":"Curkish, Bailieborough","date1":"2011-09-16","date2":"2011-11-03","price1":"85463","price2":"50000","lat":"53.915859","lng":"-6.971335"},{"address":"Togher, Bailieborough","date1":"2011-09-02","date2":"2010-04-08","price1":"117000","price2":"125000","lat":"53.915859","lng":"-6.971335"},{"address":"Dublin Road, Kingscourt","date1":"2011-08-16","date2":"2010-09-15","price1":"50000","price2":"60000","lat":"53.903225","lng":"-6.80546"},{"address":"Lisnahederna, Virginia","date1":"2011-08-12","date2":"2011-11-01","price1":"109500","price2":"10000","lat":"53.83827","lng":"-7.0831"},{"address":"Pollakeel, Carrickaboy","date1":"2011-08-04","date2":"2010-12-10","price1":"18000","price2":"100000","lat":"53.99107","lng":"-7.344475"},{"address":"Lattoon, Ballyjamesduff","date1":"2011-06-09","date2":"2010-05-14","price1":"143194","price2":"220000","lat":"53.86487","lng":"-7.21047"},{"address":"Ryefield, Virginia","date1":"2011-05-30","date2":"2011-05-11","price1":"95000","price2":"65000","lat":"53.83827","lng":"-7.0831"},{"address":"Leiter, Bailieborough","date1":"2011-05-13","date2":"2010-06-22","price1":"153000","price2":"132159","lat":"53.915859","lng":"-6.971335"},{"address":"Urcher, Bailieborough","date1":"2011-05-13","date2":"2010-04-09","price1":"70485","price2":"290000","lat":"53.915859","lng":"-6.971335"},{"address":"CORR, LOUGHDUFF","date1":"2011-04-29","date2":"2010-03-26","price1":"37500","price2":"187500","lat":"53.951252","lng":"-7.491145"},{"address":"Kilconny, Belturbet","date1":"2011-02-24","date2":"2010-05-28","price1":"118500","price2":"102000","lat":"54.101944","lng":"-7.448889"},{"address":"Corporation Lands, Belturbet","date1":"2011-02-04","date2":"2011-08-30","price1":"185000","price2":"130000","lat":"54.098919","lng":"-7.437313"},{"address":"Lisagoan, Kingscourt","date1":"2011-01-06","date2":"2010-12-21","price1":"220000","price2":"20000","lat":"53.904629","lng":"-6.80577"},{"address":"Dunaweel, Killeshandra","date1":"2010-11-23","date2":"2010-12-06","price1":"60000","price2":"65000","lat":"54.01453","lng":"-7.52644"},{"address":"Tierlahood, Stradone","date1":"2010-06-21","date2":"2010-09-08","price1":"55000","price2":"48000","lat":"53.98699","lng":"-7.25035"},{"address":"Killytogher, Crosserlough","date1":"2010-05-12","date2":"2010-08-11","price1":"185950","price2":"198238","lat":"53.99107","lng":"-7.344475"},{"address":"Ardagh, Kingscourt","date1":"2010-04-13","date2":"2010-05-13","price1":"150000","price2":"75000","lat":"53.903225","lng":"-6.80546"}]},{"name":"Clare","lat":52.903380590633,"lng":-9.0539299170832,"transactions":[{"address":"Church Street, Kilmihil","date1":"2012-08-31","date2":"2010-11-22","price1":"50000","price2":"48000","lat":"52.717371","lng":"-9.3167"},{"address":"Ardlea Road, Ennis","date1":"2012-04-03","date2":"2011-09-29","price1":"155000","price2":"125000","lat":"52.8390384738025","lng":"-8.98235380353548"},{"address":"Ballytarsna, Kilshanny","date1":"2012-03-02","date2":"2010-07-16","price1":"103000","price2":"40000","lat":"52.98472","lng":"-9.29417"},{"address":"Feighquin, Quin","date1":"2012-02-24","date2":"2011-09-21","price1":"280000","price2":"285000","lat":"52.814007","lng":"-8.862602"},{"address":"Rhynagonnaught, Doonbeg","date1":"2011-09-16","date2":"2010-06-14","price1":"95000","price2":"135000","lat":"52.730702","lng":"-9.52319"},{"address":"Castlebank, Ardnacrusha","date1":"2011-08-25","date2":"2011-10-19","price1":"90000","price2":"210000","lat":"43.822494","lng":"-84.762054"},{"address":"Carrowmanagh, Kilshanny","date1":"2011-07-05","date2":"2010-05-28","price1":"253104","price2":"70000","lat":"52.98472","lng":"-9.29417"},{"address":"Leagard North, Miltown Malbay","date1":"2011-05-20","date2":"2010-08-18","price1":"40000","price2":"120000","lat":"52.857128","lng":"-9.392495"},{"address":"glendree, feakle","date1":"2011-03-18","date2":"2010-11-29","price1":"35000","price2":"115000","lat":"52.916701","lng":"-8.65"},{"address":"Ballaghboy, Doora, Ennis","date1":"2010-04-29","date2":"2010-09-17","price1":"248000","price2":"265000","lat":"52.840378","lng":"-8.931542"},{"address":"Market Street, Corofin","date1":"2010-03-16","date2":"2010-05-28","price1":"82500","price2":"53625","lat":"52.944771","lng":"-9.06397"}]},{"name":"Cork","lat":51.942932468151,"lng":-8.7676263250938,"transactions":[{"address":"31 Woodberry Lawn, Castleredmond, Midleton","date1":"2012-09-19","date2":"2010-02-08","price1":"165000","price2":"215000","lat":"51.902821","lng":"-8.16074"},{"address":"29 The Seasons, Carrigaline","date1":"2012-09-14","date2":"2010-03-05","price1":"192500","price2":"246696","lat":"51.815241","lng":"-8.394885"},{"address":"Ballyviniter, Mallow","date1":"2012-09-12","date2":"2010-07-09","price1":"220000","price2":"130000","lat":"52.170147","lng":"-8.629039"},{"address":"Myrtle Cottage, Rockmount, Drimoleague","date1":"2012-08-17","date2":"2011-08-07","price1":"95000","price2":"230000","lat":"51.66242","lng":"-9.2683"},{"address":"Barleyhill, Newmarket","date1":"2012-08-17","date2":"2010-02-12","price1":"115000","price2":"120000","lat":"52.241111","lng":"-8.986944"},{"address":"Colla Road, Schull","date1":"2012-08-02","date2":"2010-08-13","price1":"220000","price2":"200000","lat":"51.519504","lng":"-9.547046"},{"address":"Ardcahan, Dunmanway","date1":"2012-06-18","date2":"2010-05-31","price1":"55000","price2":"147000","lat":"51.760556","lng":"-9.096944"},{"address":"Brittas, Lombardstown, Mallow","date1":"2012-05-15","date2":"2011-11-11","price1":"141000","price2":"120000","lat":"52.120064","lng":"-8.78268"},{"address":"Church Street, Newmarket","date1":"2012-05-12","date2":"2011-12-02","price1":"100000","price2":"250000","lat":"52.214722","lng":"-8.996813"},{"address":"Fennells Bay, Myrtleville","date1":"2012-04-25","date2":"2010-10-29","price1":"315000","price2":"287000","lat":"51.78284","lng":"-8.29969"},{"address":"Tawnies Upper, Clonakilty","date1":"2012-03-13","date2":"2010-07-30","price1":"96000","price2":"169000","lat":"51.63142","lng":"-8.902924"},{"address":"Scart, Kildorrery","date1":"2012-02-21","date2":"2010-09-17","price1":"179400","price2":"75000","lat":"51.77681","lng":"-8.55531"},{"address":"Millcove, Rosscarbery","date1":"2012-02-14","date2":"2010-09-17","price1":"325000","price2":"175000","lat":"51.55934141877","lng":"-9.04075291103295"},{"address":"Liscahane, Millstreet","date1":"2012-01-27","date2":"2011-09-27","price1":"180000","price2":"230000","lat":"52.06106","lng":"-9.05934"},{"address":"Broomfield East, Midleton","date1":"2012-01-12","date2":"2011-12-20","price1":"35000","price2":"75000","lat":"51.924248","lng":"-8.17524"},{"address":"Ballymacandrick, Cloyne, Co. Cork","date1":"2012-01-10","date2":"2011-12-09","price1":"36000","price2":"44000","lat":"51.830556","lng":"-8.143333"},{"address":"Ballywalter, Shanballymore, Mallow","date1":"2012-01-03","date2":"2011-12-07","price1":"270000","price2":"10158","lat":"52.2141","lng":"-8.476721"},{"address":"Killavarrig, Whitechurch","date1":"2011-12-23","date2":"2010-06-30","price1":"60000","price2":"396200","lat":"51.971085","lng":"-8.479029"},{"address":"Main Street, Newmarket","date1":"2011-12-05","date2":"2010-05-24","price1":"80000","price2":"255000","lat":"52.213413","lng":"-8.996755"},{"address":"Listarkin, Union Hall","date1":"2011-12-02","date2":"2010-09-17","price1":"250000","price2":"224670","lat":"51.559216","lng":"-9.142675"},{"address":"apt 15 South Channel Court, South terrace","date1":"2011-11-17","date2":"2011-11-18","price1":"69215","price2":"115000","lat":"51.892845","lng":"-8.46376"},{"address":"Bluepool Upper, Kanturk","date1":"2011-11-14","date2":"2010-06-20","price1":"45000","price2":"22500","lat":"52.174351","lng":"-8.906451"},{"address":"Ardmanagh, Schull","date1":"2011-10-26","date2":"2010-10-20","price1":"15000","price2":"350000","lat":"51.52858","lng":"-9.549123"},{"address":"Youngrove, Midleton","date1":"2011-10-19","date2":"2010-12-21","price1":"170000","price2":"300000","lat":"51.91427","lng":"-8.17063"},{"address":"Glenatlucky, Mitchelstown","date1":"2011-10-03","date2":"2010-08-27","price1":"60000","price2":"160500","lat":"52.239444","lng":"-8.268333"},{"address":"Ballyhalwick, Dunmanway","date1":"2011-09-19","date2":"2011-10-11","price1":"100000","price2":"90000","lat":"51.72591","lng":"-9.11623"},{"address":"Dromleigh South, Bantry","date1":"2011-08-17","date2":"2010-08-10","price1":"90000","price2":"200000","lat":"51.66938","lng":"-9.446146"},{"address":"Island Road, Newmarket","date1":"2011-08-12","date2":"2010-12-20","price1":"245000","price2":"150000","lat":"52.22143","lng":"-9.00355"},{"address":"new line, charleville","date1":"2011-08-05","date2":"2011-08-22","price1":"9000","price2":"10000","lat":"52.3528711600667","lng":"-8.68177540207373"},{"address":"Newtown, Bantry","date1":"2011-07-13","date2":"2011-12-05","price1":"300000","price2":"215000","lat":"51.693542","lng":"-9.44204"},{"address":"KILGARRIFFE, CLONAKILTY","date1":"2011-07-08","date2":"2011-09-22","price1":"320000","price2":"100000","lat":"51.6390584","lng":"-8.9129185"},{"address":"Burgatia, Rosscarbery","date1":"2011-07-08","date2":"2011-08-02","price1":"225000","price2":"217000","lat":"51.581715","lng":"-9.022135"},{"address":"78 Dewberry, Mount Oval Village, Rochestown","date1":"2011-06-30","date2":"2010-09-30","price1":"550000","price2":"526941","lat":"51.892845","lng":"-8.46376"},{"address":"Maglin, Ballincollig","date1":"2011-06-16","date2":"2011-08-30","price1":"250000","price2":"166000","lat":"51.871823","lng":"-8.5656521"},{"address":"Cooleens, Charleville","date1":"2011-06-09","date2":"2011-01-17","price1":"170000","price2":"41600","lat":"52.34227","lng":"-8.677459"},{"address":"Ballynacole, Dungourney","date1":"2011-05-30","date2":"2010-10-29","price1":"292500","price2":"197500","lat":"51.985522","lng":"-8.094885"},{"address":"Castleinch, Ovens","date1":"2011-05-28","date2":"2010-05-11","price1":"445000","price2":"205000","lat":"51.881161","lng":"-8.639825"},{"address":"Tulligmore, Ballinhassig","date1":"2011-05-25","date2":"2011-12-08","price1":"175000","price2":"110000","lat":"51.820282","lng":"-8.532038"},{"address":"18 Lower Cork Street, Macroom","date1":"2011-05-09","date2":"2010-09-15","price1":"55000","price2":"75000","lat":"51.904148","lng":"-8.95067"},{"address":"Lassanaroe, Skibbereen","date1":"2011-05-04","date2":"2010-05-14","price1":"82500","price2":"62500","lat":"51.549599","lng":"-9.2698"},{"address":"REENACAPPUL, AHAKISTA, BANTRY","date1":"2011-04-19","date2":"2010-03-09","price1":"325000","price2":"200000","lat":"51.599075","lng":"-9.626049"},{"address":"REENMEEN EAST, GLENGARRIFF","date1":"2011-04-18","date2":"2011-12-02","price1":"160000","price2":"24875","lat":"51.752152","lng":"-9.540329"},{"address":"KEALTIES, DURRUS, BANTRY","date1":"2011-03-07","date2":"2011-08-29","price1":"380000","price2":"480000","lat":"51.62677","lng":"-9.589798"},{"address":"DROMLEIGH NORTH, BANTRY","date1":"2011-02-28","date2":"2010-12-21","price1":"30000","price2":"75000","lat":"51.674492","lng":"-9.45889"},{"address":"Carrigboy, Durrus","date1":"2011-02-04","date2":"2010-07-14","price1":"852136","price2":"175000","lat":"51.620365","lng":"-9.526783"},{"address":"Ballyellis, Mallow","date1":"2011-02-03","date2":"2010-11-01","price1":"695490","price2":"350000","lat":"52.236767","lng":"-8.629671"},{"address":"140 Curragh Woods, Frankfield, Douglas","date1":"2011-01-21","date2":"2010-12-20","price1":"246000","price2":"258000","lat":"51.874402","lng":"-8.43501"},{"address":"Rathnee, Ballyclough, Mallow","date1":"2011-01-07","date2":"2011-09-02","price1":"125000","price2":"242000","lat":"52.137693","lng":"-8.646805"},{"address":"3 Sadliers Lane, Buttevant","date1":"2010-11-19","date2":"2010-11-30","price1":"87500","price2":"129630","lat":"52.22982","lng":"-8.66863"},{"address":"Barrack Road, Mitchelstown","date1":"2010-08-20","date2":"2010-10-12","price1":"270000","price2":"73142","lat":"52.262051","lng":"-8.274683"},{"address":"4 Gleann Dara Crescent, Grenagh","date1":"2010-08-11","date2":"2010-12-09","price1":"229076","price2":"269001","lat":"52.010839","lng":"-8.61116"},{"address":"Turk Head, Skibbereen","date1":"2010-08-10","date2":"2010-08-25","price1":"70000","price2":"83333","lat":"51.549599","lng":"-9.2698"},{"address":"Fergus, Dripsey","date1":"2010-08-09","date2":"2010-11-18","price1":"170000","price2":"280000","lat":"51.947405","lng":"-8.704265"},{"address":"Mill Road, Glanworth","date1":"2010-07-12","date2":"2010-12-01","price1":"40000","price2":"65000","lat":"52.187626","lng":"-8.353365"},{"address":"Gunpoint, Schull","date1":"2010-05-24","date2":"2010-10-04","price1":"67000","price2":"57500","lat":"51.525662","lng":"-9.55037"},{"address":"Lisnagourneen, Castletownroche","date1":"2010-05-14","date2":"2010-07-27","price1":"50000","price2":"120000","lat":"52.17889","lng":"-8.46531"},{"address":"7 MILLBROOK CLOSE, MILL ROAD, MIDLETON","date1":"2010-02-12","date2":"2010-12-09","price1":"180000","price2":"185000","lat":"51.918732","lng":"-8.17614"}]},{"name":"Donegal","lat":54.914336492654,"lng":-7.8100505872354,"transactions":[{"address":"Belcruit, Kincasslagh","date1":"2012-09-17","date2":"2011-11-17","price1":"175000","price2":"450000","lat":"55.026291","lng":"-8.39215"},{"address":"croaghross, portsalon","date1":"2012-09-13","date2":"2011-11-15","price1":"190000","price2":"170000","lat":"55.20538","lng":"-7.6365"},{"address":"Tullyhonour, Breenagh, Letterkenny","date1":"2012-09-11","date2":"2011-12-01","price1":"166000","price2":"30000","lat":"54.933395","lng":"-7.904963"},{"address":"Gortree, Newtowncunningham","date1":"2012-09-04","date2":"2010-11-09","price1":"62500","price2":"97500","lat":"55.00013","lng":"-7.52182"},{"address":"Glenkeo, Carrigart","date1":"2012-08-16","date2":"2011-08-15","price1":"171806","price2":"130000","lat":"55.117024","lng":"-7.810605"},{"address":"Killyverry, Newtowncunningham","date1":"2012-07-20","date2":"2010-01-28","price1":"140000","price2":"122000","lat":"55.00013","lng":"-7.52182"},{"address":"31 Willowbrook, Glencar, Letterkenny","date1":"2012-07-10","date2":"2011-10-07","price1":"40000","price2":"110000","lat":"54.95705","lng":"-7.75555"},{"address":"Narin, Portnoo","date1":"2012-07-04","date2":"2011-11-04","price1":"230000","price2":"150000","lat":"54.840269","lng":"-8.46879"},{"address":"Kill, Dunfanaghy","date1":"2012-07-03","date2":"2010-06-27","price1":"60000","price2":"110000","lat":"55.18436","lng":"-7.97447"},{"address":"3 Figart, Isle of Doagh, Clonmany","date1":"2012-06-20","date2":"2010-07-12","price1":"200000","price2":"230000","lat":"55.26277","lng":"-7.41027"},{"address":"The Haw, Lifford","date1":"2012-06-15","date2":"2010-10-29","price1":"250000","price2":"125000","lat":"54.960968","lng":"-7.470539"},{"address":"Trentaboy, Drumkeen","date1":"2012-06-05","date2":"2010-07-27","price1":"147500","price2":"112500","lat":"54.867772","lng":"-7.75097"},{"address":"Main Street, Mountcharles","date1":"2012-06-01","date2":"2010-09-02","price1":"47000","price2":"140000","lat":"54.648567","lng":"-8.20006"},{"address":"Baskill, Gleneely","date1":"2012-05-29","date2":"2010-03-15","price1":"33480","price2":"100000","lat":"54.7667","lng":"-7.68333"},{"address":"Keadue, Burtonport","date1":"2012-05-28","date2":"2010-01-12","price1":"112500","price2":"180000","lat":"54.98469","lng":"-8.43172"},{"address":"Loughanure, Annagry","date1":"2012-05-22","date2":"2010-11-26","price1":"100000","price2":"97500","lat":"55.0219","lng":"-8.31778"},{"address":"Lunniagh, Derrybeg","date1":"2012-05-11","date2":"2012-04-20","price1":"110000","price2":"93500","lat":"55.08802","lng":"-8.2902"},{"address":"Glackmore, Aught Road, Muff","date1":"2012-04-20","date2":"2011-11-02","price1":"165000","price2":"113250","lat":"55.07189","lng":"-7.27069"},{"address":"Carricknamohill, Killybegs","date1":"2012-04-02","date2":"2010-10-15","price1":"120000","price2":"66000","lat":"54.637726","lng":"-8.439486"},{"address":"Malinmore, Glencolmcille","date1":"2012-03-29","date2":"2011-11-18","price1":"27500","price2":"70485","lat":"54.691887","lng":"-8.749034"},{"address":"Hall Demesne, Mountcharles","date1":"2012-03-09","date2":"2010-12-07","price1":"182500","price2":"93000","lat":"54.642376","lng":"-8.191546"},{"address":"Main Street, Dunfanaghy","date1":"2012-03-02","date2":"2010-06-11","price1":"90000","price2":"23600","lat":"55.183193","lng":"-7.971572"},{"address":"Slievebawn, Malin Head","date1":"2012-02-22","date2":"2011-12-22","price1":"90000","price2":"105000","lat":"55.37772","lng":"-7.38933"},{"address":"Dundrean, Burnfoot","date1":"2012-02-21","date2":"2010-08-06","price1":"32000","price2":"255000","lat":"55.057991","lng":"-7.40423"},{"address":"Dunwiley, Stranorlar","date1":"2012-01-24","date2":"2010-01-26","price1":"125000","price2":"268150","lat":"54.808201","lng":"-7.770793"},{"address":"Finner, Bundoran","date1":"2011-12-08","date2":"2010-05-14","price1":"75000","price2":"90000","lat":"54.4932809607215","lng":"-8.24117200661416"},{"address":"Carrowhugh, Greencastle","date1":"2011-11-08","date2":"2010-06-23","price1":"360000","price2":"145375","lat":"55.204655","lng":"-6.97829"},{"address":"Tory Island, Letterkenny","date1":"2011-10-12","date2":"2010-05-18","price1":"35000","price2":"40000","lat":"55.144875","lng":"-8.20133"},{"address":"Gaddyduff, Clonmany","date1":"2011-10-03","date2":"2010-09-03","price1":"110000","price2":"50000","lat":"55.26627","lng":"-7.409886"},{"address":"Backlands, Ballindrait","date1":"2011-09-20","date2":"2010-10-28","price1":"46000","price2":"120000","lat":"54.8458","lng":"-7.52621"},{"address":"Glen, Carrigart","date1":"2011-09-20","date2":"2010-05-25","price1":"250000","price2":"225000","lat":"55.17575","lng":"-7.800765"},{"address":"ANNAGRY EAST, ANNAGRY","date1":"2011-09-01","date2":"2011-09-20","price1":"87000","price2":"115000","lat":"54.996834","lng":"-8.34182"},{"address":"ANIVORE, DOWNINGS","date1":"2011-08-10","date2":"2010-11-11","price1":"80000","price2":"275000","lat":"40.082618","lng":"-79.33083"},{"address":"Maghery, Dungloe","date1":"2011-08-02","date2":"2010-11-22","price1":"65000","price2":"155000","lat":"54.948632","lng":"-8.365245"},{"address":"Meenbanad, Burtonport","date1":"2011-07-27","date2":"2010-07-21","price1":"141680","price2":"130000","lat":"54.98469","lng":"-8.43172"},{"address":"Meendrain, Dungloe","date1":"2011-07-18","date2":"2010-02-16","price1":"150000","price2":"190000","lat":"54.953884","lng":"-8.363683"},{"address":"East Port, Ballyshannon","date1":"2011-07-07","date2":"2010-04-06","price1":"58000","price2":"120000","lat":"54.499332","lng":"-8.186979"},{"address":"CONVENT ROAD, LETTERKENNY","date1":"2011-06-28","date2":"2010-08-20","price1":"47500","price2":"50000","lat":"54.9484394894143","lng":"-7.74265915038825"},{"address":"Galdonagh, Manorcunningham","date1":"2011-06-27","date2":"2010-05-04","price1":"189427","price2":"225000","lat":"54.950729","lng":"-7.6167"},{"address":"Carrowcannon, Falcarragh","date1":"2011-06-02","date2":"2011-09-28","price1":"120000","price2":"125000","lat":"55.13704","lng":"-8.106155"},{"address":"Braade, Kincasslagh","date1":"2011-05-19","date2":"2010-06-01","price1":"29000","price2":"175000","lat":"55.026291","lng":"-8.39215"},{"address":"Massreagh, Kilmacrennan","date1":"2011-05-06","date2":"2010-09-09","price1":"136564","price2":"120000","lat":"55.027401","lng":"-7.78285"},{"address":"Killult, Falcarragh","date1":"2011-04-28","date2":"2010-01-04","price1":"116400","price2":"215000","lat":"55.1323355","lng":"-8.1297894"},{"address":"38 Millbrae Meadows, Carndonagh","date1":"2011-04-21","date2":"2011-12-22","price1":"80000","price2":"76000","lat":"55.244041","lng":"-7.265"},{"address":"84 lower main street, letterkenny","date1":"2011-02-11","date2":"2011-08-12","price1":"84375","price2":"100000","lat":"54.9496823531445","lng":"-7.73744000283613"},{"address":"Drumdeevin, Termon","date1":"2011-01-28","date2":"2010-02-09","price1":"120000","price2":"80000","lat":"55.051037","lng":"-7.840618"},{"address":"Ballyargus, Redcastle","date1":"2011-01-10","date2":"2011-11-18","price1":"115000","price2":"85000","lat":"55.178887","lng":"-7.16186"},{"address":"Carrowtrasna, Greencastle","date1":"2010-10-15","date2":"2010-12-13","price1":"200000","price2":"240000","lat":"55.223305","lng":"-6.946438"},{"address":"Aghadchor, Carrigart","date1":"2010-09-28","date2":"2010-12-20","price1":"365639","price2":"244493","lat":"55.17575","lng":"-7.800765"},{"address":"Carrick, Derrybeg","date1":"2010-09-01","date2":"2010-11-04","price1":"102500","price2":"151542","lat":"54.509762","lng":"-8.212331"},{"address":"Golf Course Road, Letterkenny","date1":"2010-07-14","date2":"2010-10-18","price1":"675000","price2":"335000","lat":"54.967331","lng":"-7.682964"},{"address":"Carnamuggagh Upper, Letterkenny","date1":"2010-06-25","date2":"2010-09-28","price1":"100000","price2":"190000","lat":"54.971127","lng":"-7.727514"},{"address":"Inver Village, Inver","date1":"2010-06-18","date2":"2010-07-14","price1":"220000","price2":"120000","lat":"54.654301","lng":"-8.11062"},{"address":"Drumcarbit, Malin","date1":"2010-05-18","date2":"2010-09-01","price1":"130000","price2":"6349","lat":"55.291199","lng":"-7.258875"},{"address":"18 Beacon Hill, Fahan","date1":"2010-04-28","date2":"2010-08-26","price1":"233480","price2":"275000","lat":"55.0946066745655","lng":"-7.47292155125717"},{"address":"133 Meadowhill, Letterkenny","date1":"2010-04-19","date2":"2010-06-25","price1":"140000","price2":"155000","lat":"54.968472","lng":"-7.69646"},{"address":"Gortnabrade, Carrigart","date1":"2010-03-25","date2":"2010-09-20","price1":"75000","price2":"220264","lat":"55.17575","lng":"-7.800765"},{"address":"Killylastin, Letterkenny","date1":"2010-03-04","date2":"2010-11-19","price1":"255000","price2":"195000","lat":"54.9801708","lng":"-7.7546324"},{"address":"ROSSGIER, LIFFORD","date1":"2010-01-18","date2":"2010-08-06","price1":"200000","price2":"66000","lat":"54.849484","lng":"-7.49726"}]},{"name":"Dublin","lat":53.271657062558,"lng":-6.182282354305,"transactions":[{"address":"1 Pimlico Cottages, Thomas Street","date1":"2012-09-11","date2":"2010-05-19","price1":"107000","price2":"97500","lat":"53.34079","lng":"-6.28167"},{"address":"201 Vernon Avenue, Clontarf","date1":"2012-08-13","date2":"2010-12-06","price1":"480000","price2":"450000","lat":"53.3698385770538","lng":"-6.19868879627621"},{"address":"6 FOYLE ROAD, FAIRVIEW, DUBLIN 3","date1":"2012-08-03","date2":"2010-09-10","price1":"342000","price2":"442000","lat":"53.36755","lng":"-6.24045"},{"address":"17 Donnybrook Court, Donnybrook","date1":"2012-07-12","date2":"2011-11-21","price1":"250000","price2":"22750","lat":"53.322","lng":"-6.23625"},{"address":"8 ISLINGTON AVENUE, SANDYCOVE","date1":"2012-07-10","date2":"2011-10-04","price1":"950000","price2":"400000","lat":"53.28854","lng":"-6.12598"},{"address":"33 Ringsend Road, Ringsend","date1":"2012-06-29","date2":"2011-10-10","price1":"295000","price2":"160000","lat":"53.3416652797365","lng":"-6.23387850406566"},{"address":"142  The Maples, Bird Avenue, Clonskeagh","date1":"2012-06-21","date2":"2010-10-28","price1":"72200","price2":"100000","lat":"53.306042","lng":"-6.24009"},{"address":"4 Springfield, Blackhorse Avenue","date1":"2012-06-16","date2":"2011-12-05","price1":"190000","price2":"100000","lat":"40.150021","lng":"-77.950886"},{"address":"Wyanstown, Oldtown","date1":"2012-06-08","date2":"2010-02-18","price1":"150000","price2":"6350","lat":"53.52416","lng":"-6.31613"},{"address":"5 Claddagh Green, Ballyfermot","date1":"2012-06-06","date2":"2011-12-07","price1":"40000","price2":"57750","lat":"53.341871","lng":"-6.35792"},{"address":"26 Lauderdale Terrace, New Row South","date1":"2012-05-29","date2":"2010-03-01","price1":"450000","price2":"166000","lat":"53.33778","lng":"-6.27453"},{"address":"10 Grange Park Grove, Raheny, Dublin 5","date1":"2012-03-30","date2":"2010-10-15","price1":"290000","price2":"305000","lat":"53.38720255","lng":"-6.1713776"},{"address":"16 Dollymount Grove, Clontarf","date1":"2012-02-28","date2":"2011-12-02","price1":"360500","price2":"375000","lat":"53.3650868077029","lng":"-6.18510200848576"},{"address":"143 Upper Kilmacud Road, Stillorgan, Dublin","date1":"2012-02-28","date2":"2010-08-05","price1":"500000","price2":"205000","lat":"53.288701","lng":"-6.19909"},{"address":"33 St. Assams Park, Raheny, Dublin 5","date1":"2012-02-24","date2":"2010-08-05","price1":"360000","price2":"234000","lat":"53.3817492872278","lng":"-6.16780216955577"},{"address":"26 Dunmore Park, Kingswood","date1":"2012-01-12","date2":"2011-11-14","price1":"24000","price2":"145000","lat":"53.309952","lng":"-6.36645"},{"address":"16 Cannonbrook Court, Lucan","date1":"2012-01-10","date2":"2010-07-26","price1":"200000","price2":"230000","lat":"53.34865215","lng":"-6.44646895"},{"address":"30 Cabinteely Close, Cabinteely","date1":"2011-12-23","date2":"2010-12-23","price1":"367500","price2":"500000","lat":"53.2636358332459","lng":"-6.15431850212701"},{"address":"4 Streamstown Cottages, Malahide","date1":"2011-12-19","date2":"2010-07-09","price1":"335000","price2":"200000","lat":"53.437946","lng":"-6.18182"},{"address":"159 Benmadigan Road, Drimnagh, Dublin 12","date1":"2011-10-14","date2":"2010-03-03","price1":"183000","price2":"175000","lat":"53.33458","lng":"-6.31376"},{"address":"2 The Fosters, Fosters Avenue, Mount Merrion","date1":"2011-09-13","date2":"2010-09-24","price1":"580000","price2":"259000","lat":"53.30065","lng":"-6.21109"},{"address":"48A Belmayne Avenue, Belmayne, Balgriffin","date1":"2011-08-17","date2":"2010-03-04","price1":"62500","price2":"312775","lat":"53.404465","lng":"-6.17038"},{"address":"440 Mourne Road, Drimnagh","date1":"2011-07-29","date2":"2010-06-02","price1":"176000","price2":"125000","lat":"53.330885880518","lng":"-6.32037700224083"},{"address":"131 CASTLEKNOCK PARK, CASTLEKNOCK, DUBLIN 15","date1":"2011-07-08","date2":"2010-02-15","price1":"662500","price2":"380000","lat":"53.3751054","lng":"-6.3594986"},{"address":"111 Haddington Road, Ballsbridge","date1":"2011-06-23","date2":"2010-10-14","price1":"315000","price2":"150000","lat":"53.335694","lng":"-6.23869935"},{"address":"Auburn, South Shore Road, Rush","date1":"2011-05-09","date2":"2010-03-09","price1":"180000","price2":"475000","lat":"53.514141","lng":"-6.112805"},{"address":"Apartment 7 Watermint, Old Bray Road, Cabinteely","date1":"2011-02-08","date2":"2011-10-03","price1":"176211","price2":"260000","lat":"53.269732","lng":"-6.16058"},{"address":"21 Tamarisk View, Kilnamanagh, Tallaght","date1":"2010-09-09","date2":"2010-11-29","price1":"230000","price2":"310000","lat":"53.30294","lng":"-6.36375"},{"address":"Stoney Lane, Rathcoole","date1":"2010-08-27","date2":"2010-11-17","price1":"1200000","price2":"200000","lat":"53.2829","lng":"-6.470495"},{"address":"3 PEYTON COURT, STONEY LANE, RATHCOOLE","date1":"2010-06-18","date2":"2010-07-20","price1":"300000","price2":"277040","lat":"53.2829","lng":"-6.470495"},{"address":"15 Aubrey, Shankill","date1":"2010-06-16","date2":"2010-09-06","price1":"310000","price2":"290000","lat":"53.23022695","lng":"-6.1225952"},{"address":"27 Drumcairn Avenue, Tallaght, Dublin 24","date1":"2010-05-13","date2":"2010-12-20","price1":"75000","price2":"125000","lat":"53.2891960500378","lng":"-6.39554058024178"},{"address":"12 Sallymount Avenue, Ranelagh","date1":"2010-01-04","date2":"2010-12-21","price1":"425000","price2":"545000","lat":"53.3251485045143","lng":"-6.25112865309649"}]},{"name":"Galway","lat":53.32774241474,"lng":-8.848624424989,"transactions":[{"address":"Shanbally, Craughwell","date1":"2012-09-20","date2":"2011-11-25","price1":"207000","price2":"230000","lat":"53.227932","lng":"-8.770032"},{"address":"Killeroran, Ballygar","date1":"2012-09-10","date2":"2010-05-31","price1":"80000","price2":"135000","lat":"53.516701","lng":"-8.3167"},{"address":"Dartfield, Loughrea","date1":"2012-08-10","date2":"2011-12-06","price1":"40000","price2":"100000","lat":"53.216347","lng":"-8.485261"},{"address":"Corbally North, Cummer, Tuam","date1":"2012-07-31","date2":"2010-01-27","price1":"150000","price2":"250000","lat":"53.514832","lng":"-8.854855"},{"address":"Forramoyle West, Barna","date1":"2012-07-26","date2":"2010-09-28","price1":"563000","price2":"595000","lat":"53.255224","lng":"-9.14156"},{"address":"Grange, Turloughmore","date1":"2012-07-06","date2":"2010-07-08","price1":"205000","price2":"225000","lat":"53.296669","lng":"-8.50251"},{"address":"Attymon, Athenry","date1":"2012-06-15","date2":"2011-10-24","price1":"95000","price2":"70000","lat":"53.316738","lng":"-8.612607"},{"address":"Truskey West, Barna","date1":"2012-05-18","date2":"2010-09-22","price1":"315000","price2":"370044","lat":"53.255224","lng":"-9.14156"},{"address":"BALLYGAR, BALLYGAR","date1":"2012-05-10","date2":"2010-10-20","price1":"325000","price2":"110000","lat":"53.52512","lng":"-8.33141"},{"address":"Tonroe, Oranmore","date1":"2012-05-07","date2":"2011-12-20","price1":"202000","price2":"65000","lat":"53.240278","lng":"-8.888611"},{"address":"Frenchfort, Oranmore","date1":"2012-04-16","date2":"2010-02-26","price1":"150000","price2":"352422","lat":"53.2833287","lng":"-8.900002"},{"address":"Rock Road, Lydican, Claregalway","date1":"2012-04-03","date2":"2011-08-04","price1":"180000","price2":"215000","lat":"53.32214","lng":"-8.930222"},{"address":"Bishop Street, Tuam","date1":"2012-03-09","date2":"2011-08-02","price1":"96000","price2":"260000","lat":"53.514832","lng":"-8.854855"},{"address":"Uggool, Moycullen","date1":"2012-01-04","date2":"2011-08-12","price1":"120000","price2":"140000","lat":"53.34195","lng":"-9.1805"},{"address":"Newgrove, Kilrickle, Loughrea","date1":"2011-12-20","date2":"2010-07-19","price1":"145000","price2":"137000","lat":"53.248329","lng":"-8.461896"},{"address":"Lackaghbeg, Turloughmore","date1":"2011-11-15","date2":"2010-08-20","price1":"200000","price2":"315000","lat":"53.366161","lng":"-8.8679"},{"address":"Maumeen, lettermore","date1":"2011-11-04","date2":"2010-07-22","price1":"34416","price2":"100000","lat":"53.315643","lng":"-9.60347"},{"address":"Corbally, Cummer, Tuam","date1":"2011-11-03","date2":"2011-11-22","price1":"200120","price2":"255000","lat":"53.514832","lng":"-8.854855"},{"address":"Ballinvoher, Turloughmore","date1":"2011-10-05","date2":"2010-07-20","price1":"202645","price2":"70000","lat":"43.020272","lng":"-74.03186"},{"address":"Abbert, Abbeyknockmoy","date1":"2011-09-22","date2":"2011-10-21","price1":"135000","price2":"134000","lat":"53.43605","lng":"-8.75138"},{"address":"Tooloobaun, Kiltullagh, Athenry","date1":"2011-09-19","date2":"2010-04-28","price1":"140000","price2":"215859","lat":"53.584694","lng":"-8.564171"},{"address":"Cummer, Tuam","date1":"2011-09-16","date2":"2011-11-03","price1":"135000","price2":"83000","lat":"53.514832","lng":"-8.854855"},{"address":"Moneymore, Oranmore","date1":"2011-09-12","date2":"2011-11-25","price1":"130000","price2":"512100","lat":"53.2599998","lng":"-8.8825011"},{"address":"Knocknagonnell, Ballymoe","date1":"2011-08-18","date2":"2010-12-15","price1":"90000","price2":"140000","lat":"53.69439","lng":"-8.47309"},{"address":"Gardenfield, Tuam","date1":"2011-07-22","date2":"2010-03-02","price1":"45000","price2":"90000","lat":"53.514832","lng":"-8.854855"},{"address":"Brownsgrove, Tuam","date1":"2011-07-21","date2":"2010-05-18","price1":"100000","price2":"46000","lat":"53.514832","lng":"-8.854855"},{"address":"Cloughanover, Headford","date1":"2011-06-24","date2":"2010-04-01","price1":"141850","price2":"282000","lat":"53.472518","lng":"-9.10764"},{"address":"Laraghmore, Ballyglunin, Tuam","date1":"2011-06-15","date2":"2011-12-08","price1":"74000","price2":"50000","lat":"53.514832","lng":"-8.854855"},{"address":"Bride Street, Loughrea","date1":"2011-06-09","date2":"2010-06-30","price1":"80000","price2":"130000","lat":"53.2011644839264","lng":"-8.55670487671137"},{"address":"Roskeeda, Rosmuc","date1":"2011-04-15","date2":"2010-11-03","price1":"118000","price2":"116000","lat":"43.020272","lng":"-74.03186"},{"address":"Doon West, Roscahill","date1":"2011-04-11","date2":"2011-08-19","price1":"275000","price2":"265000","lat":"53.38102","lng":"-9.253372"},{"address":"homefarm, moycullen","date1":"2011-04-08","date2":"2011-12-16","price1":"358000","price2":"230000","lat":"53.34195","lng":"-9.1805"},{"address":"Mountscribe, Kinvara","date1":"2011-04-05","date2":"2012-05-03","price1":"325000","price2":"140000","lat":"53.14245","lng":"-8.94225"},{"address":"19 SYCAMORE COURT, RENMORE, GALWAY","date1":"2011-04-04","date2":"2011-12-13","price1":"160000","price2":"177000","lat":"53.277","lng":"-9.023"},{"address":"Stradbally North, Clarinbridge","date1":"2011-02-11","date2":"2011-12-06","price1":"390000","price2":"380000","lat":"53.23434","lng":"-8.87928"},{"address":"Ballina, Ballyglunin, Tuam","date1":"2011-01-07","date2":"2010-08-13","price1":"24043","price2":"172000","lat":"53.514832","lng":"-8.854855"},{"address":"Cregmore, Claregalway","date1":"2010-07-15","date2":"2010-07-22","price1":"120000","price2":"299599","lat":"53.339809","lng":"-8.877947"},{"address":"bunowen, ballyconneely, clifden","date1":"2010-06-09","date2":"2010-06-10","price1":"125000","price2":"41668","lat":"53.422329","lng":"-10.096629"},{"address":"Ballintleva, Belclare, Tuam","date1":"2010-05-20","date2":"2010-12-09","price1":"205000","price2":"75000","lat":"53.516552","lng":"-8.973122"},{"address":"Gowla, Cashel","date1":"2010-04-07","date2":"2010-04-16","price1":"65000","price2":"70000","lat":"43.020272","lng":"-74.03186"},{"address":"Ballygurrane, Athenry","date1":"2010-03-31","date2":"2010-07-23","price1":"121000","price2":"144000","lat":"53.300249","lng":"-8.74759"},{"address":"Kilbeg, Monivea","date1":"2010-02-26","date2":"2010-04-01","price1":"105238","price2":"140000","lat":"53.431145","lng":"-9.148441"},{"address":"Glenrevagh, Corrandulla","date1":"2010-02-23","date2":"2010-03-12","price1":"253000","price2":"75000","lat":"53.415985","lng":"-8.979817"},{"address":"Gortard, Clarinbridge","date1":"2010-01-26","date2":"2010-08-19","price1":"208000","price2":"515000","lat":"53.239002","lng":"-8.869492"}]},{"name":"Kerry","lat":52.107441917474,"lng":-9.4841583916545,"transactions":[{"address":"No. 3 Ballygarron, The Spa, Tralee","date1":"2012-07-31","date2":"2010-07-30","price1":"265000","price2":"211454","lat":"52.275902","lng":"-9.780875"},{"address":"Feorus West, Kenmare","date1":"2012-07-24","date2":"2010-01-22","price1":"103000","price2":"210000","lat":"51.881449","lng":"-9.58883"},{"address":"Dromnevane, Kenmare","date1":"2012-07-18","date2":"2011-12-02","price1":"150000","price2":"170000","lat":"51.889802471893","lng":"-9.58414700174287"},{"address":"Bunaghara, Listowel","date1":"2012-07-16","date2":"2010-10-07","price1":"160000","price2":"250000","lat":"52.44574","lng":"-9.428018"},{"address":"Coom, Gneeveguilla, Rathmore","date1":"2012-06-20","date2":"2010-12-21","price1":"30000","price2":"80000","lat":"52.117771","lng":"-9.27236"},{"address":"Knockreagh, Milltown","date1":"2012-06-15","date2":"2010-05-12","price1":"185000","price2":"120000","lat":"52.121746","lng":"-9.67944"},{"address":"Ardaneanig, Killarney","date1":"2012-05-30","date2":"2010-06-22","price1":"130000","price2":"245000","lat":"52.050102","lng":"-9.436102"},{"address":"Knockeragh, Killarney","date1":"2012-05-18","date2":"2010-04-30","price1":"150000","price2":"220000","lat":"52.074871","lng":"-9.430012"},{"address":"Tiernaboul, Killarney","date1":"2012-05-16","date2":"2011-12-02","price1":"204300","price2":"201000","lat":"52.070427","lng":"-9.455424"},{"address":"Ohermong, Caherciveen","date1":"2012-05-03","date2":"2010-02-16","price1":"50000","price2":"30000","lat":"51.91518","lng":"-10.237598"},{"address":"Derreenauliffe, Sneem","date1":"2012-04-18","date2":"2010-11-24","price1":"75000","price2":"340000","lat":"51.857519","lng":"-9.83648"},{"address":"Rathkieran, The Glen, Ballinskelligs","date1":"2012-03-20","date2":"2011-12-22","price1":"190000","price2":"130000","lat":"51.8252","lng":"-10.27505"},{"address":"Trieneragh, Duagh, Listowel","date1":"2012-02-29","date2":"2011-08-03","price1":"140000","price2":"180000","lat":"52.425686","lng":"-9.424316"},{"address":"Curragraigue, Blennerville, Tralee","date1":"2012-02-23","date2":"2010-01-06","price1":"390000","price2":"265000","lat":"52.25","lng":"-9.73333"},{"address":"Muckross Road, Killarney","date1":"2011-12-23","date2":"2010-08-05","price1":"245000","price2":"315000","lat":"52.0329834942432","lng":"-9.49413618642432"},{"address":"Main Street, Kilgarvan","date1":"2011-12-23","date2":"2010-01-26","price1":"403500","price2":"305000","lat":"51.903267","lng":"-9.439404"},{"address":"Clahane, Ballyard, Tralee","date1":"2011-12-20","date2":"2011-12-22","price1":"140000","price2":"200000","lat":"52.256245","lng":"-9.707336"},{"address":"Garrymore, Bonane, Kenmare","date1":"2011-12-02","date2":"2010-11-11","price1":"60000","price2":"80000","lat":"51.881449","lng":"-9.58883"},{"address":"Derrindaffe, Duagh, Listowel","date1":"2011-09-30","date2":"2010-02-09","price1":"48000","price2":"90000","lat":"52.40596","lng":"-9.446399"},{"address":"Farran, Causeway","date1":"2011-09-15","date2":"2010-03-26","price1":"68000","price2":"125000","lat":"52.132134","lng":"-10.262522"},{"address":"Killowen, Kenmare","date1":"2011-08-31","date2":"2011-09-02","price1":"380000","price2":"60500","lat":"51.886389","lng":"-9.561667"},{"address":"RANGUE, KILLORGLIN","date1":"2011-08-25","date2":"2010-08-18","price1":"52250","price2":"100000","lat":"52.10878","lng":"-9.79022"},{"address":"KILMURRY, KENMARE","date1":"2011-08-18","date2":"2011-09-30","price1":"296035","price2":"150000","lat":"51.881449","lng":"-9.58883"},{"address":"GEARHA SOUTH, BLACKWATER, KILLARNEY","date1":"2011-07-29","date2":"2010-05-20","price1":"110000","price2":"189000","lat":"51.890568","lng":"-9.765696"},{"address":"Coolnageragh, Scartaglen, Killarney","date1":"2011-07-25","date2":"2010-05-31","price1":"219900","price2":"90000","lat":"52.060259","lng":"-9.500885"},{"address":"Greenville, Listowel","date1":"2011-07-22","date2":"2010-11-10","price1":"150000","price2":"115000","lat":"52.445911","lng":"-9.501786"},{"address":"Doon East, Ballybunion","date1":"2011-07-11","date2":"2011-12-30","price1":"191000","price2":"335000","lat":"52.520378","lng":"-9.673034"},{"address":"KILMEANEY, KILMORNA, LISTOWEL","date1":"2011-07-06","date2":"2010-04-09","price1":"202081","price2":"115000","lat":"52.438236","lng":"-9.37831"},{"address":"Claddanure West, Kenmare","date1":"2011-05-11","date2":"2010-05-06","price1":"350000","price2":"295000","lat":"51.881449","lng":"-9.58883"},{"address":"Ballyoughtra South, Milltown","date1":"2011-04-18","date2":"2010-11-16","price1":"140000","price2":"165000","lat":"52.145012","lng":"-9.715413"},{"address":"Coornagillagh, Tuosist, Killarney","date1":"2011-04-13","date2":"2010-08-13","price1":"30000","price2":"350000","lat":"51.826027","lng":"-9.729106"},{"address":"Dawros, Kenmare","date1":"2011-03-14","date2":"2011-10-27","price1":"472300","price2":"130000","lat":"51.881449","lng":"-9.58883"},{"address":"Doon Road, Ballybunion","date1":"2011-03-04","date2":"2010-01-25","price1":"51500","price2":"250000","lat":"52.520378","lng":"-9.673034"},{"address":"Irremore, Listowel","date1":"2011-02-02","date2":"2010-11-15","price1":"134000","price2":"164500","lat":"52.386005","lng":"-9.542613"},{"address":"laccamore, abbeydorney","date1":"2011-01-28","date2":"2011-11-30","price1":"63500","price2":"235000","lat":"52.35","lng":"-9.684305"},{"address":"Caherbarnagh, rathmore","date1":"2010-10-20","date2":"2010-12-01","price1":"158000","price2":"181000","lat":"52.08659","lng":"-9.21996"},{"address":"Sackville, Ardfert, Tralee","date1":"2010-06-25","date2":"2010-08-05","price1":"255000","price2":"150000","lat":"52.334404","lng":"-9.780675"},{"address":"KILMOYLEY SOUTH, KILMOYLEY","date1":"2010-06-23","date2":"2010-08-09","price1":"149780","price2":"149779","lat":"52.368794","lng":"-9.761195"},{"address":"COOMNAKILLA, BLACKWATER, KILLARNEY","date1":"2010-05-26","date2":"2010-12-02","price1":"255500","price2":"139000","lat":"52.060259","lng":"-9.500885"},{"address":"Flemby, Ballymacelligott, Tralee","date1":"2010-03-26","date2":"2010-08-10","price1":"210000","price2":"165000","lat":"52.27006","lng":"-9.70055"}]},{"name":"Kildare","lat":53.150647718948,"lng":-6.712813191628,"transactions":[{"address":"347 Woodlands, Rathangan","date1":"2012-09-04","date2":"2010-06-18","price1":"85000","price2":"130000","lat":"53.232967","lng":"-7.007694"},{"address":"Lullymore, Rathangan","date1":"2012-08-24","date2":"2010-07-05","price1":"244000","price2":"320000","lat":"53.205284","lng":"-6.997795"},{"address":"Ardkill, Carbury","date1":"2012-08-20","date2":"2010-12-10","price1":"40000","price2":"276000","lat":"53.35861","lng":"-6.96583"},{"address":"Cappanargid, Rathangan","date1":"2012-07-26","date2":"2010-10-01","price1":"137000","price2":"280000","lat":"53.217316","lng":"-6.995895"},{"address":"27 COOLAGHKNOCK GARDENS, THE PLAINS, KILDARE","date1":"2012-06-15","date2":"2010-03-07","price1":"100000","price2":"180617","lat":"53.160488","lng":"-6.89171"},{"address":"30 Ryevale Lawns, Leixlip","date1":"2012-05-21","date2":"2011-09-30","price1":"257500","price2":"260000","lat":"53.3675932429129","lng":"-6.4927774145665"},{"address":"Feighcullen, Rathangan","date1":"2012-05-14","date2":"2010-05-31","price1":"170000","price2":"285000","lat":"53.217316","lng":"-6.995895"},{"address":"Gormanstown, Kilcullen","date1":"2011-12-31","date2":"2010-12-02","price1":"300000","price2":"230000","lat":"53.091648","lng":"-6.710146"},{"address":"Moat Commons, Clane","date1":"2011-10-18","date2":"2010-11-12","price1":"317500","price2":"455000","lat":"53.2862077682231","lng":"-6.68627572334347"},{"address":"Newtown, Rathangan","date1":"2011-09-16","date2":"2010-10-27","price1":"120000","price2":"265000","lat":"53.226513","lng":"-6.991069"},{"address":"Ovidstown, Donadea, Naas","date1":"2011-08-25","date2":"2010-11-29","price1":"270000","price2":"200000","lat":"53.388912","lng":"-6.753994"},{"address":"Daars South, Sallins","date1":"2011-07-18","date2":"2011-08-17","price1":"500000","price2":"385000","lat":"53.251628","lng":"-6.666375"},{"address":"Tullywest, Kildare","date1":"2011-06-17","date2":"2010-01-19","price1":"290000","price2":"320000","lat":"53.144886","lng":"-6.910314"},{"address":"Pluckerstown, Kilmeague, Naas","date1":"2011-03-15","date2":"2011-10-10","price1":"63000","price2":"190000","lat":"53.236946","lng":"-6.857725"},{"address":"187 Griffinrath Hall, Celbridge Road, Maynooth","date1":"2010-06-22","date2":"2010-07-01","price1":"149000","price2":"132115","lat":"53.379213","lng":"-6.59411"},{"address":"Ballyshannon, Kilcullen","date1":"2010-04-14","date2":"2010-09-10","price1":"280080","price2":"340000","lat":"53.211636","lng":"-7.06557"}]},{"name":"Kilkenny","lat":52.520817055874,"lng":-7.222,"transactions":[{"address":"Kiltown, Castlecomer","date1":"2012-05-22","date2":"2010-09-30","price1":"90000","price2":"150000","lat":"52.808075","lng":"-7.213881"},{"address":"Corluddy, Carrigeen","date1":"2012-05-18","date2":"2010-06-30","price1":"240000","price2":"80000","lat":"44.31341","lng":"-93.57473"},{"address":"8 The Grange, Dunningstown Road, Kilkenny","date1":"2012-04-25","date2":"2011-11-10","price1":"250000","price2":"125000","lat":"52.655424","lng":"-7.24421"},{"address":"Rathlogan, Johnstown","date1":"2012-04-05","date2":"2011-12-09","price1":"170000","price2":"21000","lat":"52.74968","lng":"-7.56169"},{"address":"Owning, Piltown","date1":"2012-03-16","date2":"2010-07-19","price1":"380000","price2":"170000","lat":"52.35033","lng":"-7.3333"},{"address":"Kiljames, Thomastown, Kilkenny","date1":"2012-03-16","date2":"2010-06-23","price1":"50000","price2":"249000","lat":"52.529945","lng":"-7.1424"},{"address":"Stangs, Gowran","date1":"2012-02-15","date2":"2010-10-14","price1":"217500","price2":"250000","lat":"52.628479","lng":"-7.06802"},{"address":"Smithstown, Castlecomer","date1":"2012-02-10","date2":"2010-06-14","price1":"125000","price2":"230000","lat":"52.80459","lng":"-7.21128"},{"address":"42 Friary Street, Kilkenny","date1":"2011-09-23","date2":"2010-11-11","price1":"90000","price2":"80000","lat":"52.6505313401334","lng":"-7.25435509157868"},{"address":"Bramblestown, Gowran","date1":"2011-08-05","date2":"2011-12-21","price1":"300000","price2":"415000","lat":"52.62851","lng":"-7.06798"},{"address":"Polerone, Mooncoin","date1":"2011-08-05","date2":"2011-08-15","price1":"80000","price2":"105000","lat":"52.29427","lng":"-7.25564"},{"address":"Grove, Cuffesgrange","date1":"2011-07-27","date2":"2011-12-08","price1":"70000","price2":"115000","lat":"44.31341","lng":"-93.57473"},{"address":"Castlemorris, Hugginstown","date1":"2011-06-29","date2":"2010-02-10","price1":"35000","price2":"335000","lat":"52.4621201334078","lng":"-7.27569045103023"},{"address":"Main Street, Piltown","date1":"2011-06-21","date2":"2011-11-17","price1":"95000","price2":"20000","lat":"52.35091","lng":"-7.329575"},{"address":"Filbuckstown, Mooncoin","date1":"2011-02-14","date2":"2010-05-10","price1":"160000","price2":"195000","lat":"52.2907394939432","lng":"-7.24196711543842"}]},{"name":"Laois","lat":52.997111789262,"lng":-7.2918002893435,"transactions":[{"address":"clonmore, errill","date1":"2012-08-31","date2":"2011-10-20","price1":"35000","price2":"45000","lat":"52.860008","lng":"-7.67631"},{"address":"Clonkeen, Portlaoise","date1":"2012-08-31","date2":"2010-08-25","price1":"184000","price2":"242500","lat":"53.112389","lng":"-7.385138"},{"address":"Droughill, Portarlington","date1":"2012-05-28","date2":"2010-03-25","price1":"21000","price2":"200000","lat":"53.163128","lng":"-7.180664"},{"address":"Killamuck, Abbeyleix","date1":"2012-04-26","date2":"2011-08-24","price1":"95000","price2":"210000","lat":"52.91713","lng":"-7.341495"},{"address":"Rushin, Mountrath","date1":"2012-03-16","date2":"2010-11-12","price1":"199000","price2":"270000","lat":"53.005077","lng":"-7.479356"},{"address":"Glenside, Portlaoise","date1":"2012-02-24","date2":"2010-07-21","price1":"115000","price2":"187500","lat":"53.030857","lng":"-7.30405"},{"address":"Conoboro Road, Rathdowney","date1":"2012-02-21","date2":"2010-04-16","price1":"70000","price2":"85000","lat":"52.854641","lng":"-7.574506"},{"address":"Rossleighan, Portlaoise","date1":"2012-01-12","date2":"2010-09-28","price1":"80000","price2":"125000","lat":"53.064377","lng":"-7.325805"},{"address":"Main Street, Portarlington","date1":"2011-12-21","date2":"2010-02-12","price1":"150000","price2":"40000","lat":"42.199669","lng":"-88.192528"},{"address":"Rathleash, Portarlington","date1":"2011-10-18","date2":"2011-10-27","price1":"125000","price2":"147500","lat":"53.157844","lng":"-7.19066"},{"address":"Main Street, Stradbally","date1":"2011-09-21","date2":"2011-11-02","price1":"51500","price2":"150000","lat":"53.013809","lng":"-7.14661"},{"address":"Dublin Road, Portlaoise","date1":"2011-09-16","date2":"2011-10-10","price1":"140000","price2":"176150","lat":"53.040112","lng":"-7.27128"},{"address":"TUNDUFF, ABBEYLEIX","date1":"2011-06-09","date2":"2010-12-10","price1":"35000","price2":"90000","lat":"52.91888","lng":"-7.356059"},{"address":"Derrycloney, Mountmellick","date1":"2011-03-28","date2":"2011-12-02","price1":"160000","price2":"130000","lat":"53.114504","lng":"-7.325155"},{"address":"Derrykearn, Abbeyleix","date1":"2010-02-19","date2":"2010-07-06","price1":"285000","price2":"107500","lat":"52.91713","lng":"-7.341495"}]},{"name":"Leitrim","lat":54.159589988479,"lng":-8.0080894214744,"transactions":[{"address":"Carrickavoher, Aughavas","date1":"2012-07-20","date2":"2010-08-20","price1":"151542","price2":"130000","lat":"53.97464","lng":"-7.72878"},{"address":"Tully, Jamestown","date1":"2011-10-19","date2":"2011-12-08","price1":"112500","price2":"100000","lat":"53.923828","lng":"-8.03612"},{"address":"Kiltyclogher, Kiltyclogher","date1":"2011-10-10","date2":"2010-07-28","price1":"70000","price2":"60000","lat":"54.356651","lng":"-8.03881"},{"address":"Jamestown, Carrick-on-Shannon","date1":"2011-08-29","date2":"2011-11-24","price1":"400000","price2":"300000","lat":"53.923828","lng":"-8.03612"},{"address":"Drumard, Dromod","date1":"2011-05-18","date2":"2011-11-02","price1":"130000","price2":"145000","lat":"53.86124","lng":"-7.92732"}]},{"name":"Limerick","lat":52.507371767972,"lng":-8.7873541415841,"transactions":[{"address":"Sandylane, Boher","date1":"2012-08-24","date2":"2011-11-29","price1":"280000","price2":"155000","lat":"52.612481","lng":"-8.4598"},{"address":"The Square, Rathkeale","date1":"2012-08-14","date2":"2012-03-26","price1":"250000","price2":"210000","lat":"52.523487","lng":"-8.934764"},{"address":"Ballaugh, Abbeyfeale","date1":"2012-08-01","date2":"2010-12-17","price1":"160000","price2":"155000","lat":"52.386421","lng":"-9.30023"},{"address":"Drinagh, Knocklong","date1":"2012-06-07","date2":"2010-06-18","price1":"70000","price2":"90000","lat":"52.4333","lng":"-8.4167"},{"address":"Martinstown, Kilmallock","date1":"2012-03-05","date2":"2011-10-11","price1":"60000","price2":"150000","lat":"52.3989","lng":"-8.57331"},{"address":"Main Street, Glin","date1":"2012-02-28","date2":"2010-08-10","price1":"83000","price2":"165000","lat":"52.570793","lng":"-9.284493"},{"address":"Main Street, Hospital","date1":"2012-02-03","date2":"2010-06-16","price1":"70000","price2":"113235","lat":"52.47388","lng":"-8.43253"},{"address":"Maiden Street, Newcastle West","date1":"2012-02-02","date2":"2011-09-26","price1":"35000","price2":"50000","lat":"52.450336","lng":"-9.058793"},{"address":"Carrigeen, Croom","date1":"2011-12-20","date2":"2010-02-18","price1":"167000","price2":"234000","lat":"52.527778","lng":"-8.72021"},{"address":"Camas, Bruff","date1":"2011-12-02","date2":"2011-12-22","price1":"76500","price2":"160000","lat":"52.406391","lng":"-9.055373"},{"address":"SPITTLE, BALLYLANDERS","date1":"2011-11-10","date2":"2010-10-15","price1":"26100","price2":"60000","lat":"52.37461","lng":"-8.34607"},{"address":"Ballinagarde, Ballyneety","date1":"2011-10-27","date2":"2010-02-24","price1":"9650","price2":"135000","lat":"52.514526","lng":"-8.319918"},{"address":"Main Street, Rathkeale","date1":"2011-07-11","date2":"2011-05-09","price1":"35000","price2":"60000","lat":"52.523834","lng":"-8.937287"},{"address":"Farran, Ardagh","date1":"2011-07-07","date2":"2010-05-28","price1":"90000","price2":"70000","lat":"52.538303","lng":"-9.07841"},{"address":"MAIN STREET, PALLASKENRY","date1":"2011-06-02","date2":"2010-10-14","price1":"150000","price2":"75744","lat":"52.643127","lng":"-8.867263"},{"address":"Killarney Road, Abbeyfeale","date1":"2011-06-01","date2":"2010-08-26","price1":"220000","price2":"155000","lat":"52.386421","lng":"-9.30023"},{"address":"Bogmount, Abbeyfeale","date1":"2011-05-31","date2":"2010-01-27","price1":"75000","price2":"150000","lat":"52.386421","lng":"-9.30023"},{"address":"Mountmahon, Abbeyfeale","date1":"2011-04-18","date2":"2011-08-16","price1":"145000","price2":"220000","lat":"52.386421","lng":"-9.30023"},{"address":"THE HILL, ABBEYFEALE","date1":"2011-03-25","date2":"2010-12-03","price1":"185000","price2":"155000","lat":"52.386421","lng":"-9.30023"},{"address":"Thomas Street, Rathkeale","date1":"2011-02-28","date2":"2011-02-02","price1":"100000","price2":"350000","lat":"52.5247864814749","lng":"-8.93912726195273"},{"address":"Drominboy, Lisnagry","date1":"2011-02-21","date2":"2011-12-16","price1":"318000","price2":"325000","lat":"40.23237","lng":"-75.531681"},{"address":"The Square, Kilfinane","date1":"2011-02-21","date2":"2010-12-03","price1":"54000","price2":"80000","lat":"52.366699","lng":"-8.4667"},{"address":"Main Street, Bruff","date1":"2011-02-01","date2":"2010-06-25","price1":"118000","price2":"10000","lat":"52.48196","lng":"-8.55065"},{"address":"Clyduff, Lisnagry","date1":"2010-08-20","date2":"2010-12-03","price1":"277500","price2":"165000","lat":"52.685841","lng":"-8.504291"},{"address":"Reens, Ardagh","date1":"2010-07-27","date2":"2010-08-05","price1":"200000","price2":"30000","lat":"52.66098","lng":"-8.63259"},{"address":"Anglesboro, Kilmallock","date1":"2010-07-22","date2":"2010-07-31","price1":"50000","price2":"55000","lat":"52.3989","lng":"-8.57331"},{"address":"18 sycamore drive, bruff","date1":"2010-07-01","date2":"2010-07-02","price1":"18958","price2":"150000","lat":"40.233616","lng":"-75.542549"},{"address":"Castlefarm, Hospital","date1":"2010-06-10","date2":"2010-06-24","price1":"230000","price2":"157000","lat":"52.47388","lng":"-8.43253"},{"address":"Well Lane, Rathkeale","date1":"2010-03-18","date2":"2010-07-16","price1":"51000","price2":"90000","lat":"52.52481","lng":"-8.93809"}]},{"name":"Longford","lat":53.725606571868,"lng":-7.7238903250569,"transactions":[{"address":"Forgney, Ballymahon","date1":"2012-02-17","date2":"2011-12-13","price1":"75000","price2":"50000","lat":"53.5569122","lng":"-7.7237082"},{"address":"Legga, Moyne","date1":"2011-08-29","date2":"2011-10-21","price1":"45000","price2":"75000","lat":"53.902664","lng":"-7.64254"},{"address":"Esker South, Ballinalee","date1":"2011-07-26","date2":"2011-07-19","price1":"84000","price2":"18000","lat":"53.77842","lng":"-7.65023"},{"address":"Derryharrow, Longford","date1":"2011-07-18","date2":"2010-08-27","price1":"40000","price2":"118000","lat":"53.705558","lng":"-7.8136"},{"address":"fisherstown, clondra","date1":"2011-03-23","date2":"2010-07-30","price1":"13500","price2":"200000","lat":"53.7333","lng":"-7.9167"},{"address":"lisduff, longford","date1":"2011-03-14","date2":"2010-10-15","price1":"63500","price2":"105000","lat":"53.671402","lng":"-7.743495"}]},{"name":"Louth","lat":53.890927826015,"lng":-6.3547307500002,"transactions":[{"address":"Harbour Road, Clogherhead","date1":"2012-08-22","date2":"2010-11-15","price1":"89000","price2":"30000","lat":"53.791817","lng":"-6.229412"},{"address":"Seafield Road, Blackrock","date1":"2012-05-11","date2":"2010-11-12","price1":"6013216","price2":"338000","lat":"53.9625737264558","lng":"-6.3807342931547"},{"address":"Dundalk Road, Ardee","date1":"2012-04-27","date2":"2011-12-19","price1":"73000","price2":"315000","lat":"53.866322","lng":"-6.538839"},{"address":"Old Golf Links Road, Blackrock","date1":"2012-03-30","date2":"2011-11-24","price1":"130000","price2":"170000","lat":"53.968304","lng":"-6.382477"},{"address":"Main Street, Castlebellingham","date1":"2011-11-15","date2":"2010-07-23","price1":"700000","price2":"300000","lat":"53.904171","lng":"-6.39706"},{"address":"7 Moneymore, Drogheda","date1":"2011-10-28","date2":"2010-09-27","price1":"88000","price2":"100000","lat":"53.72744055","lng":"-6.3550831"},{"address":"MAIN STREET, CLOGHERHEAD","date1":"2011-10-17","date2":"2010-08-27","price1":"110000","price2":"30000","lat":"53.793335","lng":"-6.239088"},{"address":"77 castletown road, dundalk","date1":"2011-09-27","date2":"2010-09-29","price1":"95350","price2":"57000","lat":"54.011879","lng":"-6.40757"},{"address":"DRYBRIDGE, DROGHEDA","date1":"2011-09-23","date2":"2011-11-01","price1":"105000","price2":"300000","lat":"53.721859","lng":"-6.38707"},{"address":"Rathory, Ardee","date1":"2011-07-01","date2":"2012-07-06","price1":"215000","price2":"200000","lat":"53.902496","lng":"-6.59397"},{"address":"Ballymakellett, Ravensdale, Dundalk","date1":"2011-05-16","date2":"2011-01-20","price1":"125000","price2":"150000","lat":"54.03484","lng":"-6.314509"},{"address":"Mullacrew, Louth Village","date1":"2011-05-05","date2":"2010-11-26","price1":"220000","price2":"241250","lat":"53.95208","lng":"-6.542965"},{"address":"Townparks, Ardee","date1":"2011-04-29","date2":"2010-04-20","price1":"250000","price2":"115000","lat":"53.855265","lng":"-6.54005"},{"address":"Greenmount, Dunleer","date1":"2011-03-23","date2":"2010-12-01","price1":"122500","price2":"85000","lat":"53.83147","lng":"-6.39489"},{"address":"2 THE AVENUE, MARTELLO VILLAGE, DROGHEDA","date1":"2011-03-11","date2":"2010-05-14","price1":"148899","price2":"157000","lat":"53.706989","lng":"-6.33717"},{"address":"Mayne, Clogherhead","date1":"2010-06-24","date2":"2010-07-27","price1":"100000","price2":"250000","lat":"53.79145","lng":"-6.24087"},{"address":"Chapel Road, Clogherhead","date1":"2010-03-04","date2":"2010-12-20","price1":"240000","price2":"25000","lat":"53.794289","lng":"-6.242179"}]},{"name":"Mayo","lat":53.907723139173,"lng":-9.2344375685744,"transactions":[{"address":"Accony, Louisburgh","date1":"2012-09-20","date2":"2010-09-02","price1":"200000","price2":"300000","lat":"53.76396","lng":"-9.80819"},{"address":"Killeenacoff, Westport","date1":"2012-09-07","date2":"2010-08-10","price1":"125000","price2":"217500","lat":"53.775337","lng":"-9.561579"},{"address":"Tullinacurra, Swinford","date1":"2012-08-29","date2":"2011-08-09","price1":"65000","price2":"30000","lat":"53.94326","lng":"-8.946845"},{"address":"Cordarragh, Kiltimagh","date1":"2012-08-24","date2":"2011-10-07","price1":"120000","price2":"50000","lat":"53.844341","lng":"-9.001696"},{"address":"Station Road, Castlebar","date1":"2012-08-23","date2":"2010-09-02","price1":"110000","price2":"197000","lat":"53.8506313087362","lng":"-9.29097121038125"},{"address":"BROOKVILLE AVENUE, SWINFORD","date1":"2012-08-10","date2":"2010-10-22","price1":"19000","price2":"24000","lat":"53.944935","lng":"-8.950213"},{"address":"PARK ROAD, SWINFORD","date1":"2012-08-02","date2":"2011-11-11","price1":"73000","price2":"170000","lat":"53.936066","lng":"-8.952494"},{"address":"Garryredmond, Claremorris","date1":"2012-07-06","date2":"2010-10-29","price1":"10000","price2":"55000","lat":"53.727886","lng":"-8.919907"},{"address":"Farnaught, Westport","date1":"2012-05-02","date2":"2010-09-01","price1":"212000","price2":"320000","lat":"53.772221","lng":"-9.526178"},{"address":"Thomastown, Hollymount","date1":"2012-04-26","date2":"2010-03-30","price1":"203000","price2":"162500","lat":"53.66115","lng":"-9.11811"},{"address":"Brickens, Claremorris","date1":"2012-04-04","date2":"2010-05-17","price1":"27000","price2":"197000","lat":"53.721748","lng":"-8.8752"},{"address":"High Street, Westport","date1":"2012-03-05","date2":"2011-10-08","price1":"117000","price2":"340000","lat":"53.797382","lng":"-9.52278"},{"address":"CASHEL, ACHILL","date1":"2012-03-05","date2":"2011-09-09","price1":"65000","price2":"220000","lat":"53.950569","lng":"-9.987339"},{"address":"Doohoma, Ballina","date1":"2012-02-28","date2":"2010-09-03","price1":"24400","price2":"132159","lat":"54.11755","lng":"-9.149215"},{"address":"BARNACOGUE, SWINFORD","date1":"2012-02-23","date2":"2010-12-03","price1":"45000","price2":"50000","lat":"53.94326","lng":"-8.946845"},{"address":"Breaffy, Ballina","date1":"2012-02-06","date2":"2011-12-22","price1":"200000","price2":"135000","lat":"54.085747","lng":"-9.105824"},{"address":"Newport Road, Castlebar","date1":"2012-01-11","date2":"2010-08-24","price1":"100000","price2":"150000","lat":"53.8576458261837","lng":"-9.30892051229813"},{"address":"Ardnaree, Ballina","date1":"2011-12-15","date2":"2011-12-23","price1":"33000","price2":"30000","lat":"54.1088941","lng":"-9.1511171"},{"address":"Trista, Erris","date1":"2011-12-05","date2":"2011-12-06","price1":"72000","price2":"120000","lat":"30.051324","lng":"-83.17606"},{"address":"Brodella, Shrule","date1":"2011-10-28","date2":"2011-11-22","price1":"135000","price2":"80000","lat":"53.52132","lng":"-9.08911"},{"address":"John's Row, Westport","date1":"2011-10-28","date2":"2011-11-17","price1":"150000","price2":"45000","lat":"53.797509101315","lng":"-9.52448335107253"},{"address":"Cregaballa, Killasser, Swinford","date1":"2011-10-12","date2":"2011-10-14","price1":"160000","price2":"70000","lat":"53.94326","lng":"-8.946845"},{"address":"Annagh, Ballyhaunis","date1":"2011-09-28","date2":"2010-05-14","price1":"167401","price2":"33900","lat":"53.78101","lng":"-8.773839"},{"address":"Cogaula, Clogher, Claremorris","date1":"2011-09-28","date2":"2010-03-25","price1":"130000","price2":"370000","lat":"53.770554","lng":"-9.263445"},{"address":"Ross, Killala","date1":"2011-09-08","date2":"2011-12-10","price1":"60000","price2":"230000","lat":"54.211522","lng":"-9.22036"},{"address":"Aughadeffin, Kilkelly","date1":"2011-07-22","date2":"2011-09-06","price1":"85000","price2":"40000","lat":"53.866733","lng":"-8.85"},{"address":"Ballymachugh, Ballycastle","date1":"2011-06-24","date2":"2010-03-26","price1":"63000","price2":"96000","lat":"54.283329","lng":"-9.36667"},{"address":"Owenwee, Westport","date1":"2011-06-21","date2":"2011-09-21","price1":"152000","price2":"265000","lat":"53.751354","lng":"-9.599911"},{"address":"Ederglen, Bangor Erris, Ballina","date1":"2011-06-09","date2":"2011-08-16","price1":"11000","price2":"33000","lat":"54.11755","lng":"-9.149215"},{"address":"Derrykinlough, Kiltimagh","date1":"2011-06-08","date2":"2011-11-08","price1":"15000","price2":"241000","lat":"53.85041","lng":"-9"},{"address":"Amberleigh House, Ardoley, Westport","date1":"2011-06-03","date2":"2011-10-06","price1":"278000","price2":"30000","lat":"53.783028","lng":"-9.55885"},{"address":"Tallagh Road, Belmullet","date1":"2011-06-03","date2":"2011-08-26","price1":"150000","price2":"210000","lat":"54.249828","lng":"-9.992168"},{"address":"Murrisk, Westport","date1":"2011-03-07","date2":"2012-07-18","price1":"242500","price2":"169000","lat":"53.778301","lng":"-9.62987"},{"address":"Carrabaun, Westport","date1":"2011-02-10","date2":"2010-02-24","price1":"345000","price2":"95000","lat":"53.80068","lng":"-9.525515"},{"address":"Cottage Road, Breaffy, Castlebar","date1":"2010-05-27","date2":"2010-08-13","price1":"180000","price2":"334763","lat":"53.840832","lng":"-9.24735"},{"address":"The Fairgreen, Westport","date1":"2010-02-26","date2":"2010-03-09","price1":"157000","price2":"145000","lat":"53.7991648421267","lng":"-9.51917348737026"},{"address":"Lawaus, Ballindine","date1":"2010-01-11","date2":"2010-06-25","price1":"60000","price2":"100000","lat":"53.677969","lng":"-8.93847"}]},{"name":"Meath","lat":53.644746273559,"lng":-6.6827103539709,"transactions":[{"address":"Oberstown, Tara","date1":"2012-09-14","date2":"2010-06-11","price1":"190000","price2":"327357","lat":"53.583361","lng":"-6.61087"},{"address":"Galboystown, Clonmellon, Navan","date1":"2012-08-24","date2":"2010-05-12","price1":"45500","price2":"107500","lat":"53.668098","lng":"-7.034581"},{"address":"Mooretown, Ratoath","date1":"2012-08-17","date2":"2010-11-08","price1":"31208","price2":"100000","lat":"53.494926","lng":"-6.509897"},{"address":"oakstown, trim","date1":"2012-08-09","date2":"2010-09-06","price1":"170000","price2":"250000","lat":"53.556968","lng":"-6.78554"},{"address":"3 The View, Rathdale, Enfield","date1":"2012-07-26","date2":"2010-09-07","price1":"150000","price2":"173000","lat":"53.41946","lng":"-6.83262"},{"address":"gainstown, Navan","date1":"2012-07-19","date2":"2011-08-04","price1":"252000","price2":"440000","lat":"53.6218047","lng":"-6.7120325"},{"address":"Johnstown Road, Enfield","date1":"2012-07-11","date2":"2010-08-30","price1":"140000","price2":"225000","lat":"53.41309","lng":"-6.833705"},{"address":"Main Street, Slane","date1":"2012-07-09","date2":"2010-02-15","price1":"230000","price2":"268000","lat":"53.70858","lng":"-6.543418"},{"address":"Kilglynn, Kilcock","date1":"2012-06-15","date2":"2011-12-16","price1":"150000","price2":"233000","lat":"53.649919","lng":"-6.80205"},{"address":"Kilmurray, Enfield","date1":"2012-05-17","date2":"2010-07-20","price1":"295000","price2":"450000","lat":"53.41946","lng":"-6.83262"},{"address":"12 Silverbrook, Trim Road, Navan","date1":"2012-02-09","date2":"2010-09-21","price1":"198000","price2":"247500","lat":"53.63961","lng":"-6.69006"},{"address":"Garadice, Kilcock","date1":"2011-12-22","date2":"2010-12-17","price1":"385000","price2":"220000","lat":"53.450432","lng":"-6.71008"},{"address":"Blackwater Bridge, Enfield","date1":"2011-12-09","date2":"2010-11-05","price1":"164000","price2":"84000","lat":"53.415909","lng":"-6.825292"},{"address":"coolnahinch, moynalty, kells","date1":"2011-11-29","date2":"2010-03-16","price1":"250000","price2":"60000","lat":"53.725805","lng":"-6.880515"},{"address":"Moorepark, Garristown","date1":"2011-11-25","date2":"2010-03-24","price1":"275000","price2":"425000","lat":"53.56802","lng":"-6.38284"},{"address":"Derryconnor, Ballivor","date1":"2011-11-22","date2":"2010-11-15","price1":"35000","price2":"171500","lat":"53.532798","lng":"-6.96537"},{"address":"Otterstown, Athboy","date1":"2011-10-20","date2":"2010-03-12","price1":"61000","price2":"165000","lat":"53.622712","lng":"-6.915505"},{"address":"14 Beech Drive, Johnstown Wood, Navan","date1":"2011-08-31","date2":"2010-02-02","price1":"142000","price2":"150000","lat":"53.452511","lng":"-6.92811"},{"address":"Kiltale, Dunsany","date1":"2011-01-28","date2":"2010-07-19","price1":"200000","price2":"161500","lat":"53.524578","lng":"-6.66526"},{"address":"Neilstown, Bohermeen, Navan","date1":"2010-07-21","date2":"2010-09-10","price1":"357000","price2":"245000","lat":"53.651844","lng":"-6.774664"},{"address":"107 STEEPLECHASE GREEN, RATOATH","date1":"2010-05-28","date2":"2010-10-14","price1":"220000","price2":"110000","lat":"53.5111696","lng":"-6.4697102"},{"address":"4 St. Anne's Terrace, Bettystown","date1":"2010-05-24","date2":"2010-10-19","price1":"30000","price2":"113750","lat":"33.349087","lng":"-96.546654"},{"address":"Rathdrinagh, Beauparc, Navan","date1":"2010-05-14","date2":"2010-11-24","price1":"440000","price2":"170000","lat":"53.666508","lng":"-6.516758"},{"address":"Lambay, Kilbride, Trim","date1":"2010-03-26","date2":"2010-08-24","price1":"210000","price2":"320000","lat":"53.556968","lng":"-6.78554"}]},{"name":"Monaghan","lat":54.135543725163,"lng":-6.9573256674304,"transactions":[{"address":"Annaglave, Castleblayney","date1":"2012-06-21","date2":"2011-10-07","price1":"75000","price2":"20000","lat":"54.089634","lng":"-6.77158"},{"address":"Tattygare, Castleblayney","date1":"2012-05-21","date2":"2010-12-06","price1":"195000","price2":"150000","lat":"54.107487","lng":"-6.753732"},{"address":"105 Coill Darach, Castleblayney","date1":"2011-07-28","date2":"2011-12-02","price1":"170000","price2":"140000","lat":"54.110157","lng":"-6.74502"},{"address":"TULLYGONEY, TYDAVNET","date1":"2011-06-18","date2":"2011-12-22","price1":"70000","price2":"188100","lat":"54.287685","lng":"-7.005935"},{"address":"Candlefort, Inniskeen","date1":"2011-06-14","date2":"2010-07-20","price1":"60000","price2":"110000","lat":"54","lng":"-6.5833"},{"address":"Dunaree, Laragh, Castleblayney","date1":"2011-02-21","date2":"2010-01-26","price1":"200000","price2":"60000","lat":"54.044697","lng":"-6.786053"}]},{"name":"Offaly","lat":53.245380653694,"lng":-7.594751208537,"transactions":[{"address":"Ballyclare, Ferbane","date1":"2012-08-21","date2":"2012-08-01","price1":"110000","price2":"51500","lat":"53.269768","lng":"-7.851881"},{"address":"Fenter, Killeigh, Tullamore","date1":"2012-08-08","date2":"2010-07-14","price1":"160000","price2":"213250","lat":"53.230801","lng":"-7.417775"},{"address":"Main Street, Shinrone, Birr","date1":"2012-08-01","date2":"2010-02-01","price1":"101600","price2":"225500","lat":"53.188866","lng":"-7.985656"},{"address":"Clara Road, Tullamore","date1":"2012-07-16","date2":"2011-12-01","price1":"155000","price2":"146000","lat":"53.2776812","lng":"-7.49833"},{"address":"Arden Road, Tullamore","date1":"2012-05-15","date2":"2011-09-13","price1":"145000","price2":"180500","lat":"53.296059","lng":"-7.495892"},{"address":"Killaderry, Daingean","date1":"2012-04-13","date2":"2010-07-22","price1":"30000","price2":"210000","lat":"53.30023","lng":"-7.29129"},{"address":"Castlearmstrong, Ballycumber","date1":"2011-10-27","date2":"2010-09-08","price1":"148000","price2":"95000","lat":"53.323536","lng":"-7.719525"},{"address":"Whiteford, Birr","date1":"2011-09-20","date2":"2010-06-28","price1":"190000","price2":"150000","lat":"53.0820945","lng":"-7.8930187"},{"address":"Screggan, Tullamore","date1":"2011-08-26","date2":"2010-12-22","price1":"125000","price2":"345000","lat":"53.246647","lng":"-7.561629"},{"address":"Stonestown, Cloghan","date1":"2011-08-16","date2":"2010-09-01","price1":"174907","price2":"213409","lat":"53.212353","lng":"-7.870417"},{"address":"Mountpleasant, Blueball, Tullamore","date1":"2011-02-18","date2":"2010-11-17","price1":"265000","price2":"218000","lat":"53.21402","lng":"-7.588863"},{"address":"Lisnageeragh, Brosna, Birr","date1":"2011-01-08","date2":"2010-08-12","price1":"237000","price2":"257000","lat":"52.991924","lng":"-7.890168"},{"address":"Killoneen, Daingean","date1":"2010-06-14","date2":"2010-12-16","price1":"55000","price2":"80000","lat":"53.299722","lng":"-7.255"},{"address":"21 Ard Glas, Ferbane","date1":"2010-04-30","date2":"2010-09-21","price1":"142291","price2":"149950","lat":"53.270435","lng":"-7.833255"}]},{"name":"Roscommon","lat":53.784634365849,"lng":-8.4193599012024,"transactions":[{"address":"The Walk, Roscommon","date1":"2012-08-23","date2":"2011-08-29","price1":"142500","price2":"150000","lat":"44.26493","lng":"-84.798904"},{"address":"Cam, Brideswell, Athlone","date1":"2012-07-20","date2":"2010-07-01","price1":"220000","price2":"307500","lat":"53.451649","lng":"-8.090482"},{"address":"MAIN STREET, KNOCKCROGHERY","date1":"2012-06-14","date2":"2010-05-12","price1":"275000","price2":"90000","lat":"53.58355","lng":"-8.104898"},{"address":"Knockhall, Rooskey","date1":"2012-06-08","date2":"2012-03-29","price1":"82000","price2":"155000","lat":"53.825718","lng":"-7.970872"},{"address":"Warren or Drum, Boyle","date1":"2012-06-01","date2":"2010-12-21","price1":"85000","price2":"125000","lat":"53.977409","lng":"-8.26309"},{"address":"Ardsallaghbeg, Roscommon","date1":"2012-04-30","date2":"2010-07-20","price1":"149000","price2":"180000","lat":"44.26493","lng":"-84.798904"},{"address":"Cloonslanor, Strokestown","date1":"2012-04-20","date2":"2011-08-05","price1":"50000","price2":"165000","lat":"53.77686","lng":"-8.10194"},{"address":"Castleplunkett, Castlerea","date1":"2012-03-06","date2":"2010-06-10","price1":"90000","price2":"125000","lat":"53.752384","lng":"-8.337279"},{"address":"BAYLOUGH, ATHLONE","date1":"2012-02-24","date2":"2011-10-14","price1":"140000","price2":"25000","lat":"44.26493","lng":"-84.798904"},{"address":"Brackloon, Castlerea","date1":"2011-11-28","date2":"2010-08-23","price1":"25000","price2":"98000","lat":"53.800568","lng":"-8.432471"},{"address":"BOHO, BALLINTUBBER","date1":"2011-11-08","date2":"2011-11-25","price1":"60000","price2":"75000","lat":"44.26493","lng":"-84.798904"},{"address":"Lanesboro Street, Roscommon","date1":"2011-10-06","date2":"2010-06-21","price1":"60000","price2":"160000","lat":"44.26493","lng":"-84.798904"},{"address":"LUNG, BALLAGHADERREEN","date1":"2011-09-16","date2":"2011-12-30","price1":"120000","price2":"75000","lat":"53.897064","lng":"-8.567639"},{"address":"Rahara Village, Rahara","date1":"2011-08-02","date2":"2010-12-08","price1":"88000","price2":"175000","lat":"44.26493","lng":"-84.798904"},{"address":"cORBO, Kilrooskey","date1":"2011-05-31","date2":"2010-08-04","price1":"35000","price2":"160000","lat":"44.26493","lng":"-84.798904"},{"address":"BALLYLEAGUE, LANESBORO","date1":"2011-05-11","date2":"2011-12-09","price1":"100000","price2":"70000","lat":"53.675831","lng":"-8.00124"},{"address":"Tobracken, Ballaghaderreen","date1":"2011-05-04","date2":"2011-09-16","price1":"105000","price2":"36000","lat":"53.904171","lng":"-8.58015"},{"address":"SLIEVE AND CORBALLY, DONAMON","date1":"2011-03-31","date2":"2011-10-21","price1":"187500","price2":"75000","lat":"53.668418","lng":"-8.324955"},{"address":"Cloonaugh, Carrowbehy, Castlerea","date1":"2011-03-08","date2":"2010-01-11","price1":"90000","price2":"32500","lat":"53.812672","lng":"-8.666103"},{"address":"Attirory, Creagh, Ballinasloe","date1":"2011-01-20","date2":"2010-10-29","price1":"208000","price2":"188000","lat":"53.358826","lng":"-8.15844"},{"address":"1 Upper Maple Drive, Boyle","date1":"2010-09-09","date2":"2010-11-19","price1":"150000","price2":"220000","lat":"44.309265","lng":"-84.767357"},{"address":"Ardmoyle, Kingsland, Boyle","date1":"2010-04-23","date2":"2010-06-04","price1":"265350","price2":"120000","lat":"53.918251","lng":"-8.416261"}]},{"name":"Sligo","lat":54.138886367779,"lng":-8.6515606237837,"transactions":[{"address":"cabragh, rathlee","date1":"2012-05-22","date2":"2010-09-15","price1":"84000","price2":"60000","lat":"41.108496","lng":"-79.49305"},{"address":"BOYLE ROAD, GURTEEN","date1":"2012-02-22","date2":"2011-08-05","price1":"35000","price2":"182379","lat":"53.992852","lng":"-8.51518"},{"address":"Rosses Point, Co. Sligo","date1":"2011-12-14","date2":"2010-06-18","price1":"200000","price2":"315000","lat":"54.309167","lng":"-8.5661109"},{"address":"Knockadoo, Coolaney","date1":"2011-11-24","date2":"2010-03-02","price1":"70000","price2":"134327","lat":"54.15414","lng":"-8.6451"},{"address":"Pier Road, Enniscrone","date1":"2011-11-09","date2":"2010-05-26","price1":"75000","price2":"70000","lat":"54.21628","lng":"-9.09071"},{"address":"Rooskey, Doocastle, Ballymote","date1":"2011-09-22","date2":"2010-11-30","price1":"30000","price2":"85000","lat":"53.996193","lng":"-8.687476"},{"address":"Station Road, Ballisodare","date1":"2011-08-09","date2":"2010-12-15","price1":"45000","price2":"330000","lat":"54.211929","lng":"-8.505701"},{"address":"Carrowdough, Strandhill, Co. Sligo","date1":"2011-03-08","date2":"2010-11-04","price1":"40000","price2":"35000","lat":"54.270096","lng":"-8.596845"},{"address":"Carrowhubbock South, Enniscrone","date1":"2011-02-01","date2":"2010-11-03","price1":"150000","price2":"235000","lat":"54.21628","lng":"-9.09071"},{"address":"Marist Convent Lands, Tubbercurry, Sligo","date1":"2011-01-05","date2":"2011-10-14","price1":"3504000","price2":"5559481","lat":"54.04841","lng":"-8.73682"},{"address":"Grattan Street, Ballymote","date1":"2010-12-06","date2":"2010-12-22","price1":"98000","price2":"35000","lat":"54.087619211124","lng":"-8.51510541989314"},{"address":"Killanley, Castleconnor","date1":"2010-08-13","date2":"2010-12-21","price1":"290000","price2":"222500","lat":"41.108496","lng":"-79.49305"},{"address":"Carnaree, Ballymote","date1":"2010-04-09","date2":"2010-04-12","price1":"120000","price2":"280000","lat":"54.134087","lng":"-8.528675"},{"address":"Ballyara, Tubbercurry","date1":"2010-03-05","date2":"2010-12-03","price1":"25000","price2":"250000","lat":"54.04841","lng":"-8.73682"}]},{"name":"Tipperary","lat":52.622509563972,"lng":-7.963255599484,"transactions":[{"address":"Deansgrove, Cashel","date1":"2012-09-17","date2":"2010-07-23","price1":"155000","price2":"254000","lat":"52.516155","lng":"-7.891425"},{"address":"Ballyartella, Ballycommon, Nenagh","date1":"2012-08-02","date2":"2010-07-05","price1":"168000","price2":"105000","lat":"52.903778","lng":"-8.248336"},{"address":"Garrynamona, Ballycahill, Thurles","date1":"2012-07-17","date2":"2010-08-20","price1":"100000","price2":"175000","lat":"52.685001","lng":"-7.903453"},{"address":"KNOCKANROE, TEMPLEMORE","date1":"2012-06-29","date2":"2010-12-04","price1":"170000","price2":"40000","lat":"52.798382","lng":"-7.83236"},{"address":"Towerhill, Borrisokane","date1":"2012-06-15","date2":"2011-12-02","price1":"42000","price2":"107500","lat":"52.999287","lng":"-8.125038"},{"address":"Longorchard, Templetuohy, Thurles","date1":"2012-04-18","date2":"2010-02-19","price1":"110000","price2":"30000","lat":"52.774094","lng":"-7.734224"},{"address":"Derryleigh, Newport","date1":"2012-03-09","date2":"2010-09-10","price1":"205000","price2":"30000","lat":"52.712369","lng":"-8.40204"},{"address":"Loughtea, Ballina","date1":"2012-03-05","date2":"2011-09-12","price1":"320000","price2":"267000","lat":"52.80858","lng":"-8.43537"},{"address":"Noard, Two Mile Borris, Thurles","date1":"2012-03-05","date2":"2010-09-24","price1":"250000","price2":"500000","lat":"52.671013","lng":"-7.69125"},{"address":"CUGUILLA, CASTLEINEY, TEMPLEMORE","date1":"2012-02-20","date2":"2011-09-26","price1":"12500","price2":"25000","lat":"52.798382","lng":"-7.83236"},{"address":"Boulick, Gortnahoe, Thurles","date1":"2012-01-27","date2":"2010-02-09","price1":"83000","price2":"225000","lat":"52.676319","lng":"-7.603321"},{"address":"Gortlandroe, Nenagh","date1":"2012-01-19","date2":"2010-04-12","price1":"79500","price2":"188888","lat":"52.8717187881929","lng":"-8.22046631603841"},{"address":"CARRIGATOHER, NENAGH","date1":"2011-12-08","date2":"2010-07-07","price1":"130000","price2":"82500","lat":"52.834103","lng":"-8.278412"},{"address":"3 Agars Lane, Cashel","date1":"2011-11-25","date2":"2010-11-02","price1":"32000","price2":"68000","lat":"52.516155","lng":"-7.891425"},{"address":"Church Street, Newport","date1":"2011-11-22","date2":"2010-08-13","price1":"80000","price2":"174990","lat":"52.712369","lng":"-8.40204"},{"address":"Foxhall, Newport","date1":"2011-11-14","date2":"2010-01-26","price1":"50000","price2":"110000","lat":"52.712369","lng":"-8.40204"},{"address":"Doonane, Newport","date1":"2011-10-17","date2":"2011-12-09","price1":"157500","price2":"248000","lat":"52.712369","lng":"-8.40204"},{"address":"Holycross, Thurles","date1":"2011-09-21","date2":"2010-07-06","price1":"220000","price2":"125000","lat":"52.638988","lng":"-7.86833"},{"address":"Ballyvaughan, Powerstown, Clonmel","date1":"2011-08-12","date2":"2010-05-27","price1":"35000","price2":"192000","lat":"52.38406","lng":"-7.666954"},{"address":"Church Street, Roscrea","date1":"2011-07-29","date2":"2010-12-06","price1":"92533","price2":"61000","lat":"52.9557711880164","lng":"-7.7952216230461"},{"address":"Glenbower, Coolbawn, Nenagh","date1":"2011-07-26","date2":"2010-12-20","price1":"310000","price2":"400000","lat":"52.96756","lng":"-8.265969"},{"address":"CLONMORE, TEMPLEMORE","date1":"2011-07-19","date2":"2010-12-31","price1":"90000","price2":"95000","lat":"52.798382","lng":"-7.83236"},{"address":"Annaholty, Birdhill","date1":"2011-06-14","date2":"2011-09-05","price1":"128000","price2":"207500","lat":"52.7667","lng":"-8.4333"},{"address":"Ballybeg, Littleton, Thurles","date1":"2011-04-01","date2":"2010-06-10","price1":"15000","price2":"75500","lat":"52.639332","lng":"-7.718974"},{"address":"KILTILLANE, TEMPLEMORE","date1":"2011-03-23","date2":"2011-02-11","price1":"135000","price2":"125636","lat":"52.797272","lng":"-7.828297"},{"address":"Glengoole, Thurles","date1":"2011-03-11","date2":"2010-11-25","price1":"180000","price2":"112500","lat":"52.610378","lng":"-7.643966"},{"address":"Main Street, Bansha","date1":"2011-03-07","date2":"2010-05-28","price1":"123000","price2":"105000","lat":"52.446468","lng":"-8.062615"},{"address":"Ballycommon, Nenagh","date1":"2011-02-25","date2":"2010-01-15","price1":"130000","price2":"96000","lat":"52.89201","lng":"-8.24566"},{"address":"Moyne Village, Moyne, Thurles","date1":"2011-01-28","date2":"2010-12-15","price1":"100000","price2":"186000","lat":"52.67881","lng":"-7.81342"},{"address":"Ballintotty, Nenagh","date1":"2011-01-18","date2":"2010-01-18","price1":"90000","price2":"385000","lat":"52.861466","lng":"-8.12785"},{"address":"Knocka, Drom, Templemore","date1":"2011-01-10","date2":"2011-08-17","price1":"195000","price2":"200000","lat":"52.775673","lng":"-7.875234"},{"address":"ADAMSTOWN, TEMPLEMORE","date1":"2010-08-09","date2":"2010-10-13","price1":"150000","price2":"80000","lat":"52.798382","lng":"-7.83236"}]},{"name":"Waterford","lat":52.13377132398,"lng":-7.5423512134109,"transactions":[{"address":"Chapel Street, Lismore","date1":"2012-08-08","date2":"2012-03-15","price1":"60000","price2":"90000","lat":"52.1365591591128","lng":"-7.9318665210143"},{"address":"Carrigahilla, Stradbally","date1":"2012-01-19","date2":"2010-02-19","price1":"125000","price2":"170000","lat":"52.130001","lng":"-7.46"},{"address":"Kilclooney, Kilmacthomas","date1":"2011-08-17","date2":"2011-11-23","price1":"50000","price2":"120000","lat":"52.246307","lng":"-7.497603"},{"address":"Knockatoor, Clashmore","date1":"2011-05-06","date2":"2010-12-08","price1":"80000","price2":"210000","lat":"52.012619","lng":"-7.82315"},{"address":"28 BARKER STREET, WATERFORD","date1":"2010-06-30","date2":"2010-07-01","price1":"18500","price2":"115000","lat":"52.2614494227211","lng":"-7.11653424067284"},{"address":"Knockateemore, Abbeyside, Dungarvan","date1":"2010-02-17","date2":"2010-04-15","price1":"320050","price2":"85000","lat":"52.102949","lng":"-7.61092"}]},{"name":"Westmeath","lat":53.526293333113,"lng":-7.4330435693791,"transactions":[{"address":"Ballinacurra, Moyvore","date1":"2012-03-16","date2":"2010-08-26","price1":"35000","price2":"115000","lat":"53.53532","lng":"-7.62971"},{"address":"105 The Orchard, Blyry Lower, Athlone","date1":"2012-02-03","date2":"2011-09-21","price1":"102503","price2":"39648","lat":"53.43578","lng":"-7.89958"},{"address":"Rathwire Lower, Killucan","date1":"2012-01-05","date2":"2010-02-24","price1":"70000","price2":"230000","lat":"53.507408","lng":"-7.146835"},{"address":"Hiskinstown, Delvin","date1":"2011-12-06","date2":"2010-11-24","price1":"150000","price2":"280000","lat":"53.61278","lng":"-7.09712"},{"address":"41 Millmount, Mullingar","date1":"2011-12-06","date2":"2010-10-01","price1":"115000","price2":"80000","lat":"53.5166308956797","lng":"-7.33390577516646"},{"address":"42 BEECHPARK WEST, ATHLONE","date1":"2011-12-01","date2":"2010-10-29","price1":"105000","price2":"110000","lat":"53.42971","lng":"-7.93756"},{"address":"Parsonstown, Mullingar","date1":"2011-11-08","date2":"2010-04-01","price1":"125000","price2":"110000","lat":"53.59425","lng":"-7.317378"},{"address":"Ballygarvey, Rathowen","date1":"2011-10-10","date2":"2010-07-09","price1":"135000","price2":"152893","lat":"53.66175","lng":"-7.52534"},{"address":"Hillquarter, Coosan, Athlone","date1":"2011-09-20","date2":"2011-10-14","price1":"80500","price2":"290000","lat":"53.436466","lng":"-7.9388"},{"address":"Walshestown South, Mullingar","date1":"2011-09-01","date2":"2010-06-01","price1":"140000","price2":"245500","lat":"53.527554","lng":"-7.407675"},{"address":"Ballykeeran Big, Athlone","date1":"2011-06-30","date2":"2011-09-28","price1":"327000","price2":"150000","lat":"53.454594","lng":"-7.878706"},{"address":"Kilmaglish, Knockdrin, Mullingar","date1":"2011-06-10","date2":"2010-08-24","price1":"47000","price2":"312500","lat":"53.582447","lng":"-7.320637"},{"address":"Ballinderry, Mullingar","date1":"2011-04-29","date2":"2011-10-03","price1":"100000","price2":"141500","lat":"53.5120851857684","lng":"-7.32664858722005"},{"address":"Water Street, Castlepollard","date1":"2011-04-19","date2":"2010-08-03","price1":"138000","price2":"123000","lat":"53.685082","lng":"-7.296365"},{"address":"Joanstown, Rathowen","date1":"2011-03-01","date2":"2011-10-14","price1":"87500","price2":"165000","lat":"53.66175","lng":"-7.52534"},{"address":"Dryderstown, Delvin","date1":"2011-02-23","date2":"2010-05-28","price1":"95000","price2":"154000","lat":"53.61278","lng":"-7.09712"},{"address":"Porterstown, Killucan","date1":"2010-08-24","date2":"2010-09-10","price1":"270000","price2":"247000","lat":"53.504143","lng":"-7.150086"},{"address":"Kilpatrick, Ballinea, Mullingar","date1":"2010-06-22","date2":"2010-07-26","price1":"120000","price2":"820000","lat":"53.501492","lng":"-7.384427"},{"address":"Marlinstown, Mullingar","date1":"2010-06-16","date2":"2010-12-22","price1":"150000","price2":"510000","lat":"53.5224113921322","lng":"-7.30145536543564"}]},{"name":"Wexford","lat":52.415497333893,"lng":-6.6001263732565,"transactions":[{"address":"Cummerduff, Gorey","date1":"2012-08-23","date2":"2010-11-04","price1":"125000","price2":"95000","lat":"52.745964","lng":"-6.418426"},{"address":"Tara Hill, Gorey","date1":"2012-08-10","date2":"2010-03-24","price1":"390000","price2":"396000","lat":"52.693981","lng":"-6.208317"},{"address":"5 Glenbeg Point, Ardamine, Gorey","date1":"2012-07-24","date2":"2010-11-17","price1":"80000","price2":"100000","lat":"52.62616","lng":"-6.23246"},{"address":"Ballygillane Big, Rosslare Harbour","date1":"2012-07-19","date2":"2011-10-06","price1":"26000","price2":"236000","lat":"52.249161","lng":"-6.33653"},{"address":"TINNOCK, OULART, GOREY","date1":"2012-07-04","date2":"2011-11-02","price1":"145000","price2":"98000","lat":"52.71793","lng":"-6.270919"},{"address":"Knockrobin, Camolin","date1":"2012-06-25","date2":"2011-08-16","price1":"300000","price2":"250000","lat":"52.5984645","lng":"-6.4015043"},{"address":"church road, bunclody","date1":"2012-06-07","date2":"2010-03-11","price1":"80000","price2":"115000","lat":"52.6501253742519","lng":"-6.65814203608608"},{"address":"Mangan, Hollyfort, Gorey","date1":"2012-06-05","date2":"2010-03-24","price1":"172500","price2":"305000","lat":"52.718105","lng":"-6.35385"},{"address":"Elm Cottage, Cahore, Gorey","date1":"2012-05-18","date2":"2011-12-21","price1":"99330","price2":"96000","lat":"52.56369","lng":"-6.202977"},{"address":"Clonleigh, Clonroche, Enniscorthy","date1":"2012-05-10","date2":"2010-05-19","price1":"129000","price2":"125000","lat":"52.44603","lng":"-6.79563"},{"address":"Loggan, Gorey","date1":"2012-05-03","date2":"2011-09-22","price1":"42000","price2":"155000","lat":"52.766224","lng":"-6.386446"},{"address":"Ballyedmond, Gorey","date1":"2012-05-02","date2":"2010-02-19","price1":"145000","price2":"280000","lat":"52.552689","lng":"-6.340616"},{"address":"Ballinastraw, Monamolin, Gorey","date1":"2012-03-22","date2":"2010-09-22","price1":"30000","price2":"250000","lat":"52.67579","lng":"-6.292015"},{"address":"Ryleen, New Ross","date1":"2012-01-23","date2":"2010-08-26","price1":"48000","price2":"220000","lat":"52.386822","lng":"-6.906982"},{"address":"Ballyhyland, Caim, Enniscorthy","date1":"2011-09-20","date2":"2010-01-29","price1":"85000","price2":"96000","lat":"52.453541","lng":"-6.643193"},{"address":"Ballyregan, Camolin, Enniscorthy","date1":"2011-09-19","date2":"2011-12-14","price1":"160000","price2":"80000","lat":"52.572781","lng":"-6.397418"},{"address":"Bargy Commons, Murrintown","date1":"2011-08-08","date2":"2011-09-20","price1":"252000","price2":"216000","lat":"40.6226","lng":"-80.054001"},{"address":"Kilanerin, Gorey","date1":"2011-07-26","date2":"2011-08-16","price1":"130000","price2":"150000","lat":"52.730953","lng":"-6.287774"},{"address":"Redshire Road, Murrintown","date1":"2011-07-26","date2":"2010-09-15","price1":"120000","price2":"124000","lat":"40.6226","lng":"-80.054001"},{"address":"Ballinastraw, Glenbrien, Enniscorthy","date1":"2011-07-21","date2":"2011-12-15","price1":"168321","price2":"108000","lat":"52.668522","lng":"-6.628515"},{"address":"Bessmount, Enniscorthy","date1":"2011-06-28","date2":"2011-11-14","price1":"390000","price2":"425000","lat":"52.507858","lng":"-6.617632"},{"address":"Cornwall, Killurin","date1":"2011-05-19","date2":"2011-10-26","price1":"210000","price2":"97000","lat":"52.383507","lng":"-6.577188"},{"address":"Clone, Ferns, Enniscorthy","date1":"2011-03-09","date2":"2011-11-18","price1":"75000","price2":"375000","lat":"52.587402","lng":"-6.492925"},{"address":"Monalee, Ballindaggin","date1":"2011-01-12","date2":"2010-12-16","price1":"40000","price2":"173000","lat":"40.6226","lng":"-80.054001"},{"address":"Finchogue, Enniscorthy","date1":"2011-01-11","date2":"2011-10-12","price1":"80000","price2":"240000","lat":"52.50354","lng":"-6.56767"},{"address":"Deerpark, Foulksmills","date1":"2011-01-04","date2":"2010-07-29","price1":"40000","price2":"157500","lat":"52.3167","lng":"-6.75"},{"address":"Dungeer, Taghmon","date1":"2010-08-24","date2":"2010-09-24","price1":"90000","price2":"230000","lat":"52.3167","lng":"-6.65"},{"address":"Ballyconnigar Lower, Blackwater","date1":"2010-03-18","date2":"2010-08-31","price1":"55000","price2":"100000","lat":"52.448792","lng":"-6.34897"},{"address":"Ballyeden, Ballyoughter, Gorey","date1":"2010-01-04","date2":"2010-04-08","price1":"255022","price2":"305000","lat":"52.733543","lng":"-6.389937"}]},{"name":"Wicklow","lat":52.986928499766,"lng":-6.3635083104372,"transactions":[{"address":"Usk, Dunlavin","date1":"2012-05-22","date2":"2011-09-15","price1":"54000","price2":"200000","lat":"53.051619","lng":"-6.7"},{"address":"Coolmore, Arklow","date1":"2012-05-02","date2":"2010-06-01","price1":"100000","price2":"124800","lat":"52.797905","lng":"-6.156275"},{"address":"34 The Pines, Arklow","date1":"2012-01-06","date2":"2011-12-02","price1":"140000","price2":"120000","lat":"52.8071500333693","lng":"-6.14313029818414"},{"address":"Kilcavan, Carnew","date1":"2011-12-22","date2":"2010-04-30","price1":"95000","price2":"330000","lat":"52.710208","lng":"-6.49556"},{"address":"Hollywood Lower, Hollywood","date1":"2011-10-04","date2":"2010-06-04","price1":"95000","price2":"105000","lat":"53.099777","lng":"-6.607247"},{"address":"82 Eagle Valley, Enniskerry","date1":"2011-08-04","date2":"2010-09-10","price1":"765000","price2":"850000","lat":"53.1912480671889","lng":"-6.17670284884704"},{"address":"Merginstown Glen, Dunlavin","date1":"2011-01-25","date2":"2011-12-02","price1":"145000","price2":"250000","lat":"53.051619","lng":"-6.7"},{"address":"Weavers Square, Baltinglass","date1":"2010-10-27","date2":"2010-12-02","price1":"440000","price2":"125000","lat":"52.94072","lng":"-6.706069"}]}]}